subject,lap,start_time,straight,roundabout_entry,roundabout_exit,zebra_crossing,left_turn,u_turn,bypass_dummy,car,pedestrian,traffic_light,narrow_road,dummy,bend,habituation,traffic,hurry,frustration,surprise,risk_outcome,risk_source_env,risk_source_other_usr,risk_source_driver,risk_source_crash,risk_evaluation,violation_no,violation_roadside_invasion,violation_give_the_way,violation_road_signs,violation_heavy_braking,violation_roadside_exit,violation_slowdown,emotion_na,emotion_neutral,emotion_surprise,emotion_anger,emotion_boredom,emotion_fear,emotion_fun,gaze_na,gaze_complete_expl,gaze_partial_expl,gaze_poor_expl,distraction_na,distraction_no,distraction_reduced_attention,distraction_speaking,max_speed,avg_speed,std_speed,yaw,yaw_rate,roll,roll_rate,pitch,pitch_rate,lat_acce,long_acce,vert_acce,avg_acce_pedal_pos,std_acce_pedal_pos,avg_steer_angle,std_steer_angle,hr,hrv_lf,hrv_hf,hrv_lfhf_ratio,gsr_tonic,gsr_phasic,gsr_peaks,EBRmean,BDmean,ThetaFrontal,ThetaParietal,AlphaFrontal,AlphaParietal,LowerAlphaFrontal,LowerAlphaParietal,UpperAlphaFrontal,UpperAlphaParietal,BetaFrontal,BetaParietal,LowerBetaFrontal,LowerBetaParietal,UpperBetaFrontal,UpperBetaParietal
0AC2A4,1,13,1,0,0,1,0,0,0,0,0,0,0,0,0,2,2,2,2,2,1,0,0,0,0,0,1,0,0,0,0,0,0,1,0,0,0,0,0,0,1,0,0,0,1,0,0,0,17.34,10.68915,5.53669,-0.00213,-0.00484,-0.01164,2.12067,-0.01071,1.2434,-0.47284,0.14899,0.00556,28.43287,21.51552,-0.85358,7.98461,64.55194,0.0345,0.0165,2.118,0.29596,0.00028,0.0,12.0,0.31999,0.19363,0.11982,0.12577,0.07799,0.1242,0.07737,0.12307,0.07681,0.05046,0.03492,0.0743,0.05289,0.03606,0.02393
0AC2A4,1,32,0,1,0,1,0,0,0,0,0,0,0,0,0,2,2,2,2,2,1,0,0,0,0,0,1,0,0,0,0,0,0,1,0,0,0,0,0,0,1,0,0,0,1,0,0,0,9.28,6.709,1.73499,-0.08089,0.08261,0.00393,1.85429,-0.00268,0.00589,1.05286,-0.52804,0.02357,0.0,0.0,-29.35143,284.61478,66.93432,0.043,0.0395,1.828,0.295,0.0009,2e-05,10.66667,0.35508,0.14434,0.09494,0.16786,0.10325,0.20402,0.10296,0.14606,0.10325,0.03636,0.02433,0.05822,0.04136,0.02535,0.01391
0AC2A4,1,36,0,0,1,1,0,0,0,0,0,0,0,0,0,2,2,2,2,2,1,0,0,0,0,0,1,0,0,0,0,0,0,1,0,0,0,0,0,0,1,0,0,0,1,0,0,0,4.86,4.34621,0.22342,-0.39941,0.0037,-0.03588,2.40318,-0.00071,0.00447,1.31047,-0.66965,-0.00694,8.18482,13.43515,-676.956,584.6401,69.64516,0.051,0.021,2.49233,0.2947,0.00099,3e-05,8.5,0.34207,0.18136,0.11772,0.14581,0.10075,0.20329,0.12355,0.09483,0.08173,0.04524,0.02847,0.06055,0.04321,0.03586,0.01923
0AC2A4,1,42,1,0,0,0,0,0,0,0,0,0,0,0,0,2,2,2,2,2,1,0,0,0,0,0,1,0,0,0,0,0,0,1,0,0,0,0,0,0,1,0,0,0,1,0,0,0,12.55,9.49041,2.25769,0.04355,-0.02185,-0.00078,1.0761,-0.00035,1.33972,0.14901,-0.63723,0.01255,30.27787,33.14691,51.53766,201.51902,73.94709,0.0466,0.0252,1.9352,0.29447,0.00142,4e-05,6.66667,0.2964,0.18363,0.11387,0.15481,0.11184,0.20325,0.12153,0.11255,0.1092,0.04928,0.02923,0.07192,0.04653,0.03536,0.01832
0AC2A4,1,52,1,0,0,0,0,1,0,0,0,0,0,0,0,2,2,2,2,2,1,0,0,0,0,0,1,0,0,0,0,0,0,1,0,0,0,0,0,0,1,0,0,0,1,0,0,0,17.29,9.6735,5.86885,-0.1108,0.03078,-0.0002,1.85427,-0.02487,1.01473,-0.35684,0.90957,-0.01883,26.03066,33.55743,-318.91541,610.76347,72.19436,0.04808,0.024,2.06258,0.29269,0.00192,3e-05,8.46154,0.35612,0.17037,0.10574,0.16066,0.13048,0.19645,0.13454,0.1327,0.13759,0.04501,0.02943,0.06175,0.04715,0.03511,0.01838
0AC2A4,1,77,0,0,0,0,1,0,0,0,0,0,0,0,0,2,2,2,2,2,1,0,0,0,0,0,1,0,0,0,0,0,0,1,0,0,0,0,0,0,1,0,0,0,1,0,0,0,13.14,7.7935,2.0491,-0.11,-0.08841,-0.00643,2.80357,-0.00304,0.0075,-0.40911,-2.03857,-0.00982,10.06518,13.87321,-131.35196,142.80163,69.91405,0.051,0.0325,1.598,0.29308,0.00105,0.0,6.0,0.3877,0.15153,0.11687,0.18767,0.14931,0.2386,0.16689,0.14768,0.15457,0.04099,0.03232,0.05572,0.04666,0.03202,0.024
0AC2A4,1,81,0,1,0,1,0,0,0,0,0,0,0,0,0,2,2,2,2,2,1,0,0,0,0,0,1,0,0,0,0,0,0,1,0,0,0,0,0,0,1,0,0,0,1,0,0,0,12.02,10.00057,1.44249,-0.00152,0.11971,0.0103,2.2897,0.00111,0.95545,0.21525,0.2503,0.00242,18.58606,26.33441,7.56586,188.17989,72.96699,0.0365,0.03625,1.03975,0.29244,0.00162,0.0,4.0,0.40137,0.2389,0.14763,0.19619,0.15617,0.25793,0.16287,0.14453,0.16269,0.04386,0.02705,0.0644,0.04472,0.03355,0.01654
0AC2A4,1,88,0,0,1,1,0,0,0,0,0,0,0,0,0,2,2,2,2,2,1,0,0,0,0,0,1,0,0,0,0,0,0,1,0,0,0,0,0,0,1,0,0,0,1,0,0,0,7.38,6.78929,0.29319,0.49262,-0.00347,-0.00214,0.03429,-0.00071,0.00667,3.23929,-0.74143,-0.01095,5.47476,7.60584,546.57238,20.03282,71.86037,0.021,0.044,0.484,0.28837,0.0043,9e-05,4.0,0.40137,0.16471,0.10573,0.24525,0.15701,0.297,0.18826,0.19237,0.13202,0.04415,0.02677,0.06948,0.04433,0.02812,0.016
0AC2A4,1,91,0,0,0,0,1,0,0,0,0,0,0,0,0,2,2,2,2,2,1,0,0,1,0,1,0,1,0,0,0,0,0,1,0,0,0,0,0,0,1,0,0,0,1,0,0,0,9.59,6.72415,1.65572,0.12781,-0.06506,-0.0041,1.24705,0.00022,0.36142,0.05219,-0.71011,-0.00038,15.73792,20.05449,134.51251,275.02467,72.75748,0.039,0.03886,1.03543,0.28762,0.00406,9e-05,6.57143,0.36691,0.16536,0.108,0.15268,0.12612,0.19317,0.14076,0.11925,0.1168,0.03691,0.02699,0.05381,0.0439,0.0262,0.01642
0AC2A4,1,104,1,0,0,1,0,0,0,0,0,1,0,0,0,2,2,2,2,2,1,0,0,0,0,0,1,0,0,0,0,0,0,1,0,0,0,0,0,0,1,0,0,0,1,0,0,0,16.9,12.85842,2.84632,-0.10947,0.07992,0.00754,1.92807,-0.05439,2.80947,2.49561,-0.23579,0.03544,66.58772,28.54922,-82.65982,98.91221,72.59042,0.0415,0.045,1.0035,0.28974,0.00348,0.0,4.66667,0.36979,0.16924,0.11467,0.26354,0.15747,0.37632,0.18999,0.15755,0.12838,0.03729,0.02382,0.04527,0.03489,0.03186,0.01696
0AC2A4,1,108,0,0,0,0,0,0,0,0,0,0,0,0,1,2,2,2,2,2,1,0,0,0,0,0,1,0,0,0,0,0,0,1,0,0,0,0,0,0,1,0,0,0,1,0,0,0,20.47,7.5002,7.09437,-0.14093,-0.00209,0.00955,2.4555,0.00066,0.26419,-0.77311,0.28886,-0.03612,6.48886,24.36267,-110.88869,184.57338,85.58834677227723,0.03575444554455445,0.03776777227722772,1.900568089108911,0.26050207394048697,0.01836130748422002,0.00034128043282236254,10.645592238658775,0.3932532872655479,0.1838237625570776,0.18031067579908677,0.11530517808219178,0.12186832876712328,0.13269023744292238,0.13317554337899545,0.09833721461187214,0.11156234703196345,0.046918456621004564,0.04652646575342466,0.06259645662100456,0.06869888584474886,0.037426694063926944,0.032896018264840184
0AC2A4,2,9,1,0,0,1,0,0,0,0,0,0,0,0,0,2,2,2,2,2,1,0,0,0,0,0,1,0,0,0,0,0,0,0,1,0,0,0,0,0,1,0,0,0,0,1,0,0,18.26,12.9323,5.63553,0.0001,-0.00058,0.01433,2.12324,0.00071,1.48138,-0.80076,0.27657,-0.02267,36.09462,33.20495,0.19424,3.23873,85.58834677227723,0.03575444554455445,0.03776777227722772,1.900568089108911,0.29114,0.0007,0.0,10.645592238658775,0.3932532872655479,0.10926,0.07391,0.08043,0.0794,0.0943,0.07428,0.06755,0.08717,0.02149,0.02504,0.03401,0.04049,0.01359,0.01505
0AC2A4,2,24,0,1,0,1,0,0,0,0,0,0,0,0,0,2,2,2,2,2,1,0,0,0,0,0,1,0,0,0,0,0,0,0,1,0,0,0,0,0,1,0,0,0,0,1,0,0,12.67,7.7496,3.27111,-0.03521,-0.03201,0.04127,1.95056,-0.00211,0.00845,1.61676,-0.78648,-0.01662,2.02254,5.50763,65.91211,349.10175,85.58834677227723,0.03575444554455445,0.03776777227722772,1.900568089108911,0.29065,0.00127,0.0,10.645592238658775,0.3932532872655479,0.12218,0.08181,0.11196,0.08298,0.14685,0.09457,0.08139,0.08146,0.01716,0.01714,0.02249,0.02746,0.01381,0.01054
0AC2A4,2,29,0,0,1,1,0,0,0,0,0,0,0,0,0,2,2,2,2,2,1,0,0,0,0,0,1,0,0,0,0,0,0,0,1,0,0,0,0,0,1,0,0,0,0,1,0,0,5.21,4.66103,0.33394,-0.40452,0.05809,0.00393,2.17131,0.00048,0.0031,1.11524,-0.62869,-0.00738,11.27679,13.70451,-607.52821,629.26809,64.84141,0.04433,0.017,2.84933,0.29025,0.0014,1e-05,11.33333,0.33234,0.09193,0.06653,0.10037,0.09009,0.10517,0.08606,0.10596,0.10678,0.02001,0.02384,0.03096,0.03681,0.01311,0.01558
0AC2A4,2,35,1,0,0,0,0,0,0,0,0,0,0,0,0,2,2,2,2,2,1,0,0,0,0,0,1,0,0,0,0,0,0,0,1,0,0,0,0,0,1,0,0,0,0,1,0,0,11.87,7.74141,2.41402,0.02295,0.00838,0.03443,1.55055,-0.01716,0.91186,0.0182,-0.34388,-0.00404,24.49951,33.58755,25.65798,220.87884,69.38268,0.054,0.016,3.428,0.28976,0.00129,1e-05,4.0,0.40327,0.13675,0.10767,0.12156,0.11099,0.16334,0.11852,0.07865,0.10951,0.02177,0.02506,0.03348,0.03822,0.01485,0.01703
0AC2A4,2,48,1,0,0,0,0,1,0,0,0,0,0,0,0,2,2,2,2,2,1,0,0,0,0,0,1,0,0,0,0,0,0,0,1,0,0,0,0,0,1,0,0,0,0,1,0,0,16.91,8.99075,6.0174,-0.11249,-0.00908,0.02387,1.98477,0.0087,0.86268,-0.1918,0.58952,0.01255,26.75358,36.15568,-361.5474,657.96595,72.33427,0.043,0.02215,2.01408,0.28801,0.00246,4e-05,6.42857,0.36541,0.12756,0.08371,0.11058,0.0887,0.13484,0.09741,0.08532,0.08306,0.02317,0.02309,0.03353,0.03644,0.01673,0.01474
0AC2A4,2,75,0,0,0,0,1,0,0,0,0,0,0,0,0,2,2,2,2,2,1,0,0,0,0,0,1,0,0,0,0,0,0,0,1,0,0,0,0,0,1,0,0,0,0,1,0,0,7.92,6.71375,0.5711,-0.16029,-0.02465,-0.00157,3.14,-0.00229,0.451,-0.96071,-0.94443,-0.00357,13.96157,17.73526,-192.47157,141.39925,72.15874,0.05233,0.02467,2.134,0.28207,0.00628,0.00011,10.66667,0.31962,0.1304,0.07343,0.08805,0.07596,0.10133,0.0738,0.07599,0.08191,0.02668,0.02246,0.04112,0.03693,0.01766,0.01353
0AC2A4,2,80,0,1,0,1,0,0,0,0,0,0,0,0,0,2,2,2,2,2,1,0,0,0,0,0,1,0,0,0,0,0,0,0,1,0,0,0,0,0,1,0,0,0,0,1,0,0,10.5,8.92686,1.10069,0.10697,0.07848,0.00667,1.59596,0.00071,0.51131,0.87172,0.57495,-0.00505,9.85444,16.64961,115.09818,207.03636,72.49111,0.04633,0.03267,1.45433,0.27864,0.00844,8e-05,12.0,0.31462,0.11405,0.07908,0.08699,0.06701,0.10744,0.07067,0.06835,0.0638,0.02206,0.01765,0.03525,0.02903,0.01416,0.01068
0AC2A4,2,87,0,0,1,1,0,0,0,0,0,0,0,0,0,2,2,2,2,2,1,0,0,0,0,0,1,0,0,0,0,0,0,0,1,0,0,0,0,0,1,0,0,0,0,1,0,0,6.97,6.26733,0.44912,0.51048,0.0753,0.00262,0.03333,0.0,0.01,2.41595,-2.17333,-0.02238,0.0,0.0,627.89643,153.15187,72.92128,0.036,0.0195,1.9615,0.27608,0.0109,0.0001,10.0,0.30117,0.10964,0.07231,0.08813,0.0727,0.10456,0.06517,0.06645,0.07354,0.02225,0.02087,0.03411,0.03455,0.01458,0.01196
0AC2A4,2,90,0,0,0,0,1,0,0,0,0,0,0,0,0,2,2,2,2,2,1,0,0,0,0,0,1,0,0,0,0,0,0,0,1,0,0,0,0,0,1,0,0,0,0,1,0,0,12.19,7.54288,2.5214,0.0813,-0.08631,0.01,1.36692,-0.00071,1.1929,0.43462,-0.47947,0.00148,34.2226,37.96223,84.9429,266.04084,73.96207,0.05883,0.01267,5.198,0.26926,0.01764,0.00024,8.85714,0.30745,0.23099,0.11378,0.16483,0.13535,0.22365,0.16175,0.08845,0.10395,0.02155,0.02111,0.0336,0.03387,0.01405,0.01315
0AC2A4,2,102,1,0,0,1,0,0,0,0,0,1,0,0,0,2,2,2,2,2,1,0,0,0,0,0,1,0,0,0,0,0,0,0,1,0,0,0,0,0,1,0,0,0,0,1,0,0,18.89,16.53211,1.86958,-0.05732,0.08855,0.01071,2.18679,0.00304,2.13143,1.61821,-0.09589,-0.00179,57.40643,40.55701,-29.90143,61.47882,74.04077,0.0495,0.016,3.2445,0.26714,0.02185,0.00018,6.66667,0.31326,0.11578,0.07773,0.1052,0.10176,0.10782,0.10319,0.11411,0.10226,0.02679,0.02459,0.04072,0.03741,0.01802,0.01687
0AC2A4,2,106,0,0,0,0,0,0,0,0,0,0,0,0,1,2,2,2,2,2,1,0,0,0,0,0,1,0,0,0,0,0,0,0,1,0,0,0,0,0,1,0,0,0,0,1,0,0,18.33,6.12236,6.084,-0.14026,0.00015,-0.0101,2.55818,0.00029,0.00364,-0.75601,0.25345,-0.02073,0.45684,1.06258,-107.71403,188.14785,85.58834677227723,0.03575444554455445,0.03776777227722772,1.900568089108911,0.26050207394048697,0.01836130748422002,0.00034128043282236254,10.645592238658775,0.3932532872655479,0.1838237625570776,0.18031067579908677,0.11530517808219178,0.12186832876712328,0.13269023744292238,0.13317554337899545,0.09833721461187214,0.11156234703196345,0.046918456621004564,0.04652646575342466,0.06259645662100456,0.06869888584474886,0.037426694063926944,0.032896018264840184
0AC2A4,3,8,1,0,0,1,0,0,0,0,0,0,0,0,0,1,2,2,2,2,1,0,0,0,0,0,1,0,0,0,0,0,0,0,1,0,0,0,0,0,1,0,0,0,0,1,0,0,16.16,12.37631,4.60741,-0.00979,-0.02262,-0.0151,1.79992,0.00059,0.88192,-0.51021,0.01695,-0.00561,28.69883,27.37898,-9.27272,44.90047,85.58834677227723,0.03575444554455445,0.03776777227722772,1.900568089108911,0.28566,0.00213,4e-05,10.645592238658775,0.3932532872655479,0.14843,0.0998,0.11163,0.08566,0.14554,0.09719,0.07422,0.07538,0.02536,0.02691,0.03964,0.04472,0.01628,0.01564
0AC2A4,3,25,0,1,0,1,0,0,0,0,0,0,0,0,0,1,2,2,2,2,1,0,0,0,0,0,1,0,0,0,0,0,0,0,1,0,0,0,0,0,1,0,0,0,0,1,0,0,8.23,6.67071,1.0526,-0.04238,0.21561,0.01667,1.57714,-0.00214,0.00548,1.12619,0.16333,-0.02833,0.0,0.0,9.70476,300.20742,85.58834677227723,0.03575444554455445,0.03776777227722772,1.900568089108911,0.28737,0.00065,0.0,10.645592238658775,0.3932532872655479,0.29346,0.15125,0.25091,0.16705,0.31607,0.19061,0.19873,0.1431,0.03056,0.02926,0.05127,0.05496,0.01749,0.01289
0AC2A4,3,28,0,0,1,1,0,0,0,0,0,0,0,0,0,1,2,2,2,2,1,0,0,0,0,0,1,0,0,0,0,0,0,0,1,0,0,0,0,0,1,0,0,0,0,1,0,0,5.44,4.37371,0.48179,-0.32,-0.00397,0.0297,2.16,0.0,0.00515,1.12081,-0.6601,-0.00717,4.6302,9.29603,-535.81566,644.12664,68.15418,0.05233,0.02467,2.48033,0.28603,0.00195,1e-05,10.0,0.36719,0.30118,0.13735,0.17597,0.15378,0.227,0.13849,0.11564,0.165,0.02457,0.02583,0.0381,0.04353,0.01624,0.0148
0AC2A4,3,35,1,0,0,0,0,0,0,0,0,0,0,0,0,1,2,2,2,2,1,0,0,0,0,0,1,0,0,0,0,0,0,0,1,0,0,0,0,0,1,0,0,0,0,1,0,0,13.42,9.71551,2.74134,0.03099,0.01101,0.0034,1.74596,0.02035,1.53965,0.18936,-0.98057,0.01376,40.57716,35.31155,6.16823,195.09913,70.17596,0.048,0.025,1.9276,0.28518,0.00222,6e-05,5.6,0.30391,0.14181,0.09991,0.13861,0.11895,0.17209,0.13244,0.1065,0.11049,0.0249,0.02319,0.04152,0.04057,0.01428,0.01212
0AC2A4,3,45,1,0,0,0,0,1,0,0,0,0,0,0,0,1,2,2,2,2,1,0,0,0,0,0,1,0,0,0,0,0,0,0,1,0,0,0,0,0,1,0,0,0,0,1,0,0,17.88,9.2618,6.08224,-0.11558,-0.00967,0.01492,1.67982,0.01708,0.95361,-0.32726,1.03111,-0.00439,24.72424,32.45249,-275.72489,555.92801,70.57705,0.04729,0.02214,2.30957,0.2858,0.00169,4e-05,6.85714,0.3301,0.18757,0.11982,0.14318,0.13148,0.17716,0.13995,0.11384,0.13077,0.02806,0.02765,0.04209,0.04422,0.01985,0.01746
0AC2A4,3,72,0,0,0,0,1,0,0,0,0,0,0,0,0,1,2,2,2,2,1,0,0,0,0,0,1,0,0,0,0,0,0,0,1,0,0,0,0,0,1,0,0,0,0,1,0,0,14.17,10.204,1.30882,-0.2786,-0.0407,-0.00302,3.14,0.06442,0.37488,-1.63605,-3.46326,-0.00767,10.4714,17.14785,-220.07512,158.21341,72.32243,0.037,0.019,1.979,0.28728,0.00065,0.0,5.0,0.33203,0.11123,0.08819,0.10136,0.11181,0.12673,0.12685,0.07822,0.10838,0.02098,0.02214,0.03242,0.03668,0.01373,0.01311
0AC2A4,3,75,0,1,0,1,0,0,0,0,0,0,0,0,0,1,2,2,2,2,1,0,0,0,0,0,1,0,0,0,0,0,0,0,1,0,0,0,0,0,1,0,0,0,0,1,0,0,12.09,9.84912,1.67325,0.15939,0.09089,0.00697,1.50475,0.00051,0.41737,1.49051,0.52273,0.00838,7.96727,16.95411,167.48141,231.3273,72.25842,0.03875,0.0135,2.94075,0.28643,0.00162,2e-05,4.5,0.33984,0.29946,0.12081,0.13037,0.11042,0.15152,0.11205,0.11252,0.11609,0.02758,0.02262,0.04062,0.03591,0.01956,0.0144
0AC2A4,3,82,0,0,1,1,0,0,0,0,0,0,0,0,0,1,2,2,2,2,1,0,0,0,0,0,1,0,0,0,0,0,0,0,1,0,0,0,0,0,1,0,0,0,0,1,0,0,7.22,6.664,0.35353,0.67862,0.05418,0.0,0.04586,-0.00034,0.01,2.55,-3.6931,-0.02586,0.0,0.0,785.06143,99.95256,72.48482,0.035,0.012,2.997,0.28546,0.00212,7e-05,4.0,0.34375,0.69807,0.17427,0.1555,0.08291,0.2135,0.09676,0.10268,0.07383,0.03475,0.02673,0.05484,0.04905,0.02192,0.01277
0AC2A4,3,84,0,0,0,0,1,0,0,0,0,0,0,0,0,1,2,2,2,2,1,0,0,0,0,0,1,0,0,0,0,0,0,0,1,0,0,0,0,0,1,0,0,0,0,1,0,0,14.62,8.78345,2.0924,0.06019,-0.05325,0.03671,1.2871,0.01839,1.44052,0.61452,-0.5011,-0.02013,34.78406,36.59454,57.65406,236.45727,73.09648,0.0462,0.0098,4.8848,0.28534,0.00206,7e-05,4.66667,0.33116,0.23418,0.11665,0.23775,0.19353,0.32279,0.21046,0.14831,0.18569,0.03199,0.03187,0.05311,0.05585,0.01843,0.01649
0AC2A4,3,95,1,0,0,1,0,0,0,0,0,1,0,0,0,1,2,2,2,2,1,0,0,0,0,0,1,0,0,0,0,0,0,0,1,0,0,0,0,0,1,0,0,0,0,1,0,0,19.1,17.41714,1.35282,-0.03881,0.03078,0.07452,2.69143,0.07548,2.09429,1.38429,-0.00357,-0.02,53.12119,45.38364,-17.67286,21.32296,74.99935,0.0385,0.012,3.4615,0.28576,0.00241,9e-05,7.0,0.2972,0.15893,0.10297,0.17353,0.16006,0.19342,0.12892,0.15457,0.18813,0.02842,0.02995,0.04638,0.05335,0.01709,0.01537
0AC2A4,3,98,0,0,0,0,0,0,0,0,0,0,0,0,1,1,2,2,2,2,1,0,0,0,0,0,1,0,0,0,0,0,0,0,1,0,0,0,0,0,1,0,0,0,0,1,0,0,18.5,6.841,6.49877,-0.15512,0.00019,0.02116,2.51207,-0.00028,0.00309,-0.8754,0.29874,0.00302,1.99232,6.64189,-105.02761,189.66413,85.58834677227723,0.03575444554455445,0.03776777227722772,1.900568089108911,0.26050207394048697,0.01836130748422002,0.00034128043282236254,10.645592238658775,0.3932532872655479,0.1838237625570776,0.18031067579908677,0.11530517808219178,0.12186832876712328,0.13269023744292238,0.13317554337899545,0.09833721461187214,0.11156234703196345,0.046918456621004564,0.04652646575342466,0.06259645662100456,0.06869888584474886,0.037426694063926944,0.032896018264840184
0AC2A4,4,8,1,0,0,1,0,0,0,0,0,0,0,0,0,1,1,2,2,2,1,0,0,0,0,0,1,0,0,0,0,0,0,0,1,0,0,0,0,0,1,0,0,0,0,1,0,0,15.41,8.76521,5.71021,-0.00948,-0.00632,0.00834,2.49221,-3e-05,0.80289,-0.12312,0.00221,-0.00642,21.22693,22.3178,-50.38407,99.82853,62.32833,0.04,0.0175,2.487,0.28692,0.00073,1e-05,11.0,0.31576,0.14129,0.09524,0.10968,0.08955,0.12307,0.0928,0.09832,0.08918,0.03088,0.02377,0.0457,0.04005,0.02179,0.01366
0AC2A4,4,32,0,1,0,1,0,0,0,1,1,0,0,0,0,1,1,2,2,2,1,0,0,0,0,0,1,0,0,0,0,0,0,0,1,0,0,0,0,0,1,0,0,0,0,1,0,0,5.4,4.63917,0.53787,-0.03169,-0.02686,-0.00521,1.68423,-0.04239,0.75268,-0.51099,-0.23239,-0.01113,14.75972,11.77378,-54.27732,268.62132,62.29095,0.038,0.0225,2.2695,0.28673,0.00094,2e-05,10.66667,0.31723,0.15321,0.11688,0.09959,0.08874,0.11712,0.09331,0.08156,0.08729,0.02871,0.02407,0.03854,0.03609,0.02256,0.01654
0AC2A4,4,37,0,0,1,1,0,0,0,0,0,0,0,0,0,1,1,2,2,2,1,0,0,0,0,0,1,0,0,0,0,0,0,0,1,0,0,0,0,0,1,0,0,0,0,1,0,0,6.91,5.0231,0.88626,-0.36103,0.07491,-0.03034,2.13483,-0.00034,0.9069,1.5631,-0.9208,-0.00885,14.75103,15.73551,-591.81759,663.18002,61.8906,0.03567,0.012,3.11633,0.28534,0.00183,6e-05,5.33333,0.3291,0.20174,0.11397,0.11933,0.09442,0.15771,0.09217,0.08004,0.09637,0.03192,0.02748,0.04805,0.04533,0.02184,0.0162
0AC2A4,4,43,1,0,0,0,0,0,0,0,0,0,0,0,0,1,1,2,2,2,1,0,0,0,0,0,1,0,0,0,0,0,0,0,1,0,0,0,0,0,1,0,0,0,0,1,0,0,10.6,9.09857,0.92053,0.02124,0.00711,0.00179,1.67448,0.02034,0.56455,0.00766,-0.33862,0.00779,15.586,19.82248,16.11959,196.90047,65.14435,0.0364,0.0204,2.0688,0.28389,0.00261,9e-05,4.0,0.33047,0.14168,0.08942,0.13735,0.10673,0.14953,0.09548,0.12192,0.11703,0.02704,0.02374,0.04085,0.03894,0.01845,0.01413
0AC2A4,4,53,1,0,0,0,0,1,0,0,0,0,0,0,0,1,1,2,2,2,1,0,0,0,0,0,1,0,0,0,0,0,0,0,1,0,0,0,0,0,1,0,0,0,0,1,0,0,14.35,8.62876,5.27046,-0.10809,-0.00438,0.00748,2.02618,-0.01471,0.61826,-0.26319,0.78551,-0.00213,20.21172,24.31464,-341.73172,627.44325,70.44319,0.02936,0.02343,1.64486,0.28524,0.00199,5e-05,6.42857,0.33115,0.21368,0.13796,0.20639,0.16559,0.25593,0.16696,0.15587,0.169,0.0349,0.02653,0.04937,0.04376,0.02575,0.01561
0AC2A4,4,81,0,0,0,0,1,0,0,1,0,0,0,0,0,1,1,2,2,2,1,0,0,0,0,0,1,0,0,0,0,0,0,0,1,0,0,0,0,0,1,0,0,0,0,1,0,0,12.93,4.72318,3.62686,-0.08639,-0.02987,-0.00233,2.99835,-0.00015,0.83105,-0.33511,-1.09165,0.00203,18.27158,20.00184,-102.52556,116.81591,71.28215,0.0248,0.0176,1.7106,0.28601,0.0017,2e-05,6.0,0.3276,0.15933,0.10279,0.10554,0.09262,0.11867,0.10784,0.09039,0.08548,0.02994,0.02178,0.04317,0.03319,0.02165,0.01468
0AC2A4,4,90,0,1,0,1,0,0,0,0,0,0,0,0,0,1,1,2,2,2,1,0,0,0,0,0,1,0,0,0,0,0,0,0,1,0,0,0,0,0,1,0,0,0,0,1,0,0,10.66,8.87618,1.29798,0.07324,0.10008,0.03873,1.23951,0.0002,0.55735,0.70608,0.60853,-0.00765,12.56324,18.39064,82.82696,187.22541,67.52317,0.03733,0.018,2.34767,0.28745,0.00063,1e-05,6.0,0.33529,0.14985,0.09474,0.1206,0.10589,0.15108,0.10944,0.09505,0.11203,0.02852,0.02472,0.04014,0.03681,0.02092,0.01698
0AC2A4,4,97,0,0,1,1,0,0,0,0,1,0,0,0,0,1,1,2,2,2,1,0,0,0,0,0,1,0,0,0,0,0,0,0,1,0,0,0,0,0,1,0,0,0,0,1,0,0,6.54,5.94071,0.36987,0.51091,0.00428,-0.00159,0.03136,0.0,0.00977,2.56841,-1.37614,-0.02045,0.11568,0.4623,652.9975,42.82506,67.6994,0.027,0.005,5.6905,0.28657,0.0014,4e-05,6.0,0.33789,0.32804,0.17629,0.24396,0.16092,0.3283,0.15925,0.14097,0.1573,0.03228,0.02935,0.04697,0.0511,0.0239,0.01542
0AC2A4,4,100,0,0,0,0,1,0,0,0,0,0,0,0,0,1,1,2,2,2,1,0,0,0,0,0,1,0,0,0,0,0,0,0,1,0,0,0,0,0,1,0,0,0,0,1,0,0,9.31,5.73692,2.84958,0.07888,-0.05687,-0.00485,1.49052,0.01309,0.67712,0.18403,-0.37039,0.00124,18.61957,25.40645,93.6709,238.91762,68.80597,0.04462,0.01388,3.81013,0.28597,0.00116,3e-05,4.44444,0.37305,0.1702,0.11731,0.16426,0.12337,0.20492,0.13004,0.11741,0.11752,0.03919,0.0338,0.06019,0.05717,0.02578,0.01909
0AC2A4,4,116,1,0,0,1,0,0,0,0,0,1,0,0,0,1,1,2,2,2,1,0,0,0,0,0,1,0,0,0,0,0,0,0,1,0,0,0,0,0,1,0,0,0,0,1,0,0,14.66,12.5916,1.94461,-0.06338,0.09015,-0.03189,1.65486,0.04041,1.57,1.26973,-0.21081,0.01378,40.54662,25.65571,-47.96662,114.3186,70.56219,0.035,0.0105,3.3575,0.2869,0.00049,0.0,2.0,0.39453,0.17255,0.12818,0.16534,0.14005,0.19499,0.13947,0.14087,0.1663,0.02909,0.03018,0.04663,0.04876,0.01886,0.01916
0AC2A4,4,121,0,0,0,0,0,0,0,0,0,0,0,0,1,1,1,2,2,2,1,0,0,0,0,0,1,0,0,0,0,0,0,0,1,0,0,0,0,0,1,0,0,0,0,1,0,0,15.07,6.78051,5.56919,-0.14684,0.00316,0.00942,2.61127,0.00055,0.00299,-0.71361,0.29536,-0.02711,0.90402,5.38369,-117.76038,192.82927,85.58834677227723,0.03575444554455445,0.03776777227722772,1.900568089108911,0.26050207394048697,0.01836130748422002,0.00034128043282236254,10.645592238658775,0.3932532872655479,0.1838237625570776,0.18031067579908677,0.11530517808219178,0.12186832876712328,0.13269023744292238,0.13317554337899545,0.09833721461187214,0.11156234703196345,0.046918456621004564,0.04652646575342466,0.06259645662100456,0.06869888584474886,0.037426694063926944,0.032896018264840184
0AC2A4,5,4,1,0,0,1,0,0,0,0,0,0,0,0,0,1,2,1,2,2,1,0,0,0,0,0,1,0,0,0,0,0,0,0,1,0,0,0,0,0,1,0,0,0,0,1,0,0,27.44,15.82672,9.00465,-0.00643,-0.01937,0.04742,1.69099,-0.01489,2.17731,-0.9283,0.17489,0.01571,69.83005,44.36818,-1.7439,20.79189,85.58834677227723,0.03575444554455445,0.03776777227722772,1.900568089108911,0.29165,0.00156,1e-05,10.645592238658775,0.3932532872655479,0.15316,0.10106,0.09418,0.10949,0.11876,0.11491,0.06986,0.10485,0.0295,0.1136,0.04133,0.11771,0.022,0.11133
0AC2A4,5,17,0,1,0,1,0,0,0,0,0,0,0,0,0,1,2,1,2,2,1,0,0,0,0,0,1,0,0,0,0,0,0,0,1,0,0,0,0,0,1,0,0,0,0,1,0,0,11.02,10.24733,0.37005,-0.11395,-0.17989,-0.09953,2.06116,-0.00767,0.1514,0.77698,-2.02953,-0.1086,12.54465,14.70148,-109.67884,368.2242,85.58834677227723,0.03575444554455445,0.03776777227722772,1.900568089108911,0.29058,0.0021,4e-05,10.645592238658775,0.3932532872655479,0.1375,0.10332,0.1034,0.14047,0.10307,0.11072,0.11027,0.18306,0.02424,0.05583,0.0295,0.06795,0.02076,0.0475
0AC2A4,5,20,0,0,1,1,0,0,0,0,0,0,0,0,0,1,2,1,2,2,1,0,0,0,0,0,1,0,0,0,0,0,0,0,1,0,0,0,0,0,1,0,0,0,0,1,0,0,9.65,5.1716,2.77194,-0.45229,0.3072,-0.01657,1.62114,-0.00243,0.72357,2.48714,-0.42257,0.23014,29.86171,44.89756,-347.91429,1138.19788,85.58834677227723,0.03575444554455445,0.03776777227722772,1.900568089108911,0.28889,0.00361,9e-05,10.645592238658775,0.3932532872655479,0.12348,0.08967,0.10177,0.11314,0.12191,0.0999,0.08574,0.12031,0.02831,0.07198,0.03702,0.07739,0.02253,0.06799
0AC2A4,5,25,1,0,0,0,0,0,0,0,0,0,0,0,0,1,2,1,2,2,1,0,0,0,0,0,1,0,0,0,0,0,0,0,1,0,0,0,0,0,1,0,0,0,0,1,0,0,16.94,13.31256,2.5907,0.0523,-0.0564,-0.00195,1.87619,-0.07965,1.91982,0.31717,-1.26381,-0.05044,57.7869,42.64644,33.56726,203.40983,78.11513,0.061,0.037,1.8025,0.28867,0.00549,9e-05,8.0,0.32373,0.10482,0.08079,0.09795,0.10277,0.11151,0.08484,0.09098,0.12076,0.0256,0.04699,0.03687,0.06443,0.01842,0.03618
0AC2A4,5,33,1,0,0,0,0,1,0,0,0,0,0,0,0,1,2,1,2,2,1,0,0,0,0,0,1,0,0,0,0,0,0,0,1,0,0,0,0,0,1,0,0,0,0,1,0,0,23.66,13.46,7.41727,-0.18146,-0.00048,-0.01314,1.92481,-0.02418,1.71339,-0.60715,2.01724,-0.02192,54.91356,45.51266,-348.83364,659.33952,80.7144,0.04067,0.022,1.92033,0.28823,0.00686,0.0001,7.33333,0.335,0.13257,0.09463,0.1533,0.12493,0.17283,0.10977,0.13541,0.14331,0.02961,0.04716,0.04376,0.06415,0.02092,0.03654
0AC2A4,5,50,0,0,0,0,1,0,0,0,0,0,0,0,0,1,2,1,2,2,1,0,0,0,0,0,1,0,0,0,0,0,0,0,1,0,0,0,0,0,1,0,0,0,0,1,0,0,17.5,13.41143,1.50989,-0.26833,-0.11932,-0.03024,2.7669,-0.07905,0.90524,-2.7131,-4.29429,-0.495,34.9019,43.2383,-165.28286,172.93175,81.90759,0.056,0.021,2.644,0.28506,0.01095,0.00015,8.0,0.36914,0.14221,0.09271,0.10788,0.09692,0.11828,0.09507,0.11269,0.10269,0.02433,0.0377,0.03452,0.04728,0.01833,0.03262
0AC2A4,5,53,0,1,0,1,0,0,0,0,0,0,0,0,0,1,2,1,2,2,1,0,0,1,0,1,0,1,0,0,0,0,0,0,1,0,0,0,0,0,1,0,0,0,0,1,0,0,19.04,14.0428,4.15793,0.16786,0.14004,-0.02571,1.63314,0.00286,1.08457,2.49471,0.53371,0.01486,33.51657,40.95496,161.61071,246.82872,81.08594,0.063,0.02233,2.82267,0.28449,0.01005,0.00018,8.0,0.36914,0.11832,0.07999,0.14892,0.13925,0.20536,0.16365,0.09047,0.12714,0.0266,0.03711,0.04256,0.05264,0.01692,0.02744
0AC2A4,5,58,0,0,1,1,0,0,0,0,0,0,0,0,0,1,2,1,2,2,1,0,0,0,0,0,1,0,0,0,0,0,0,0,1,0,0,0,0,0,1,0,0,0,0,1,0,0,9.07,8.632,0.26612,0.64607,0.19666,0.01536,0.055,0.1075,0.45107,4.84679,-3.03571,-0.00571,24.54714,33.08434,582.70893,204.76593,82.17942,0.048,0.02,2.435,0.28436,0.0092,0.00028,7.0,0.33561,0.08949,0.07916,0.07857,0.07192,0.08542,0.07834,0.07394,0.06875,0.02043,0.02955,0.02857,0.035,0.01517,0.02578
0AC2A4,5,60,0,0,0,0,1,0,0,0,0,0,0,0,0,1,2,1,2,2,1,0,0,1,0,1,0,1,0,0,0,0,0,0,1,0,0,0,0,0,1,0,0,0,0,1,0,0,16.08,10.91462,4.04885,0.14814,-0.17942,0.00469,1.58425,0.10513,1.89478,-0.01805,-0.93867,0.31009,54.66142,49.49029,58.1185,310.35512,81.64005,0.04075,0.02225,2.05375,0.28514,0.01366,0.00018,6.0,0.36432,0.1344,0.09342,0.10447,0.10916,0.11909,0.11643,0.08228,0.10235,0.02809,0.04001,0.04534,0.05912,0.01711,0.02823
0AC2A4,5,68,1,0,0,1,0,0,0,0,0,1,0,0,0,1,2,1,1,2,1,0,0,0,0,0,1,0,0,0,0,0,0,0,1,0,0,0,0,0,1,0,0,0,0,1,0,0,21.62,16.7285,3.43027,-0.07946,0.13571,0.01446,1.74268,0.00161,2.91571,2.69339,-0.49643,-0.06268,93.10518,23.12793,-48.48446,128.4395,81.21943,0.041,0.04,1.0405,0.2872,0.01116,6e-05,6.66667,0.38411,0.16731,0.10988,0.15004,0.12742,0.1352,0.11727,0.1685,0.14033,0.03121,0.0395,0.05313,0.06574,0.01711,0.02337
0AC2A4,5,72,0,0,0,0,0,0,0,0,0,0,0,0,1,1,2,1,2,2,1,0,0,1,0,1,0,1,0,0,0,0,0,0,1,0,0,0,0,0,1,0,0,0,0,1,0,0,23.81,8.91027,8.04094,-0.2079,-0.00037,0.01467,2.80355,-0.01407,0.97397,-1.3286,0.48701,0.0972,28.9464,40.98697,-151.1643,265.37125,85.58834677227723,0.03575444554455445,0.03776777227722772,1.900568089108911,0.26050207394048697,0.01836130748422002,0.00034128043282236254,10.645592238658775,0.3932532872655479,0.1838237625570776,0.18031067579908677,0.11530517808219178,0.12186832876712328,0.13269023744292238,0.13317554337899545,0.09833721461187214,0.11156234703196345,0.046918456621004564,0.04652646575342466,0.06259645662100456,0.06869888584474886,0.037426694063926944,0.032896018264840184
0AC2A4,6,5,1,0,0,1,0,0,0,0,1,0,0,0,0,1,1,1,1,2,2,0,1,1,0,2,0,0,1,0,0,0,1,0,0,1,0,0,0,0,1,0,0,0,0,1,0,0,21.41,13.99164,5.49631,-0.02283,-0.00925,-0.00119,2.10767,-0.01397,1.95511,-0.6979,-0.04064,0.00726,64.06193,46.21608,-13.22417,39.04252,85.58834677227723,0.03575444554455445,0.03776777227722772,1.900568089108911,0.29765,0.00171,1e-05,10.645592238658775,0.3932532872655479,0.14144,0.08388,0.11537,0.10068,0.14023,0.09655,0.09189,0.10364,0.03524,0.05207,0.04981,0.06825,0.02624,0.04212
0AC2A4,6,20,0,1,0,1,0,0,0,0,0,0,1,0,0,1,1,1,1,2,1,0,0,0,0,0,1,0,0,0,0,0,0,0,1,0,0,0,0,0,1,0,0,0,0,1,0,0,10.27,9.715,0.38541,0.1,0.08178,0.00733,1.48233,0.0,0.00467,0.62033,1.26633,0.016,0.0,0.0,84.48733,200.77652,85.58834677227723,0.03575444554455445,0.03776777227722772,1.900568089108911,0.30028,0.00421,0.00011,10.645592238658775,0.3932532872655479,0.14666,0.08727,0.15289,0.18557,0.21743,0.18327,0.08232,0.18814,0.0357,0.03239,0.05299,0.04903,0.0244,0.02169
0AC2A4,6,22,0,0,1,1,0,0,0,1,0,0,0,0,0,1,1,1,1,2,1,0,0,0,0,0,1,0,0,0,0,0,0,0,1,0,0,0,0,0,1,0,0,0,0,1,0,0,9.99,7.5785,1.16818,-0.63684,0.06875,-0.00053,2.2093,-0.00175,0.60965,3.61246,-2.78684,-0.36702,23.63877,42.07825,-733.23,751.56148,85.58834677227723,0.03575444554455445,0.03776777227722772,1.900568089108911,0.30055,0.00305,5e-05,10.645592238658775,0.3932532872655479,0.13745,0.08666,0.13051,0.14344,0.13893,0.11321,0.12118,0.17276,0.03579,0.03754,0.056,0.05795,0.02318,0.02455
0AC2A4,6,26,1,0,0,0,0,0,0,0,0,0,0,0,0,1,1,1,1,2,1,0,0,1,0,1,0,1,0,0,0,0,0,0,1,0,0,0,0,0,1,0,0,0,0,1,0,0,18.66,14.65517,2.28728,0.03609,-0.02067,0.0669,1.85828,0.03448,1.91609,0.19195,-0.92782,0.1423,60.96471,46.8311,19.54494,194.61006,76.24675,0.0475,0.03,1.6445,0.29979,0.00327,6e-05,11.0,0.30794,0.16595,0.11278,0.08826,0.11397,0.11055,0.10947,0.06976,0.13051,0.0305,0.04976,0.04629,0.06463,0.02164,0.041
0AC2A4,6,32,1,0,0,0,0,0,1,0,0,0,0,0,0,1,1,1,1,2,1,0,0,0,0,0,1,0,0,0,0,0,0,0,1,0,0,0,0,0,1,0,0,0,0,1,0,0,23.7,13.07685,7.21899,-0.14101,0.00249,0.00029,1.4068,-0.02094,1.50795,-0.58295,1.48284,-0.00687,48.54896,47.62989,-364.5047,678.22338,77.24161,0.04078,0.03778,1.47322,0.29673,0.00429,0.0001,6.0,0.30905,0.16595,0.09804,0.1732,0.13994,0.21554,0.13411,0.13499,0.14812,0.03561,0.04119,0.05453,0.06284,0.02361,0.02745
0AC2A4,6,51,0,0,0,0,1,0,0,1,0,0,0,0,0,1,1,1,1,2,1,0,0,0,0,0,1,0,0,0,0,0,0,0,1,0,0,0,0,0,1,0,0,0,0,1,0,0,19.81,16.06467,2.21695,-0.27733,-0.03365,-0.00622,2.79111,-0.00978,2.44533,-4.55267,-2.126,-0.00022,86.55727,29.89524,-142.87136,85.54231,78.91693,0.0635,0.024,2.625,0.29928,0.00351,4e-05,4.0,0.28125,0.19588,0.09736,0.17524,0.12817,0.24908,0.13373,0.1127,0.12644,0.03132,0.03602,0.0485,0.05334,0.02089,0.02494
0AC2A4,6,54,0,1,0,1,0,0,0,0,0,0,0,0,0,1,1,1,1,2,1,0,0,1,0,1,0,1,0,0,0,0,0,0,1,0,0,0,0,0,1,0,0,0,0,1,0,0,21.23,16.828,3.3466,0.19977,0.27733,-0.03395,1.41512,0.07186,0.73907,4.63674,1.71395,0.22256,18.02488,38.31727,130.17674,183.20962,78.76052,0.047,0.017,2.78,0.30004,0.00182,8e-05,4.0,0.28125,0.12494,0.08226,0.16357,0.12994,0.21724,0.11363,0.11364,0.14552,0.02782,0.0327,0.03895,0.04952,0.0206,0.02345
0AC2A4,6,57,0,0,1,1,0,0,0,0,0,0,0,0,0,1,1,1,1,2,1,0,0,0,0,0,1,0,0,0,0,0,0,0,1,0,0,0,0,0,1,0,0,0,0,1,0,0,11.78,9.37222,1.15767,0.80966,-0.1004,-0.00379,0.07138,0.0069,0.00379,6.39793,-4.34586,-1.04138,3.68533,8.2741,702.90667,122.06986,78.79423,0.044,0.015,2.914,0.30023,0.00142,4e-05,4.0,0.28125,0.21499,0.1086,0.12514,0.13337,0.14009,0.09991,0.10897,0.15786,0.02611,0.04058,0.03277,0.06044,0.02198,0.02843
0AC2A4,6,59,0,0,0,0,1,0,0,0,0,0,0,0,0,1,1,1,1,2,1,0,0,1,0,1,0,1,0,0,0,0,0,0,1,0,0,0,0,0,1,0,0,0,0,1,0,0,13.43,10.79718,2.63321,0.17767,-0.08214,-0.00828,0.76103,0.02491,1.14224,-0.13052,-1.3231,-0.01793,38.47707,41.56482,72.72147,266.75247,79.79619,0.03775,0.01325,2.86625,0.29997,0.00309,5e-05,4.5,0.28857,0.17016,0.10862,0.15544,0.15475,0.19335,0.1607,0.11675,0.14386,0.03734,0.09729,0.05251,0.13158,0.02846,0.07459
0AC2A4,6,67,1,0,0,1,0,0,0,0,1,1,0,0,0,1,1,1,1,2,1,0,0,0,0,0,1,0,0,0,0,0,0,0,0,0,0,0,0,1,1,0,0,0,0,1,0,0,17.76,12.31967,3.31302,-0.09011,0.03868,0.00391,2.05793,-0.00034,2.31621,1.02667,0.42057,0.03678,71.60368,45.08582,-57.92299,119.58694,79.37561,0.036,0.012,3.51067,0.29794,0.0068,0.00013,4.66667,0.33724,0.14342,0.09828,0.11403,0.17378,0.10757,0.15179,0.1168,0.19335,0.05226,0.16145,0.0652,0.18051,0.04468,0.1518
0AC2A4,6,73,0,0,0,0,0,0,0,0,0,0,0,0,1,1,1,1,1,2,1,0,0,1,0,1,0,1,0,0,0,1,0,0,1,0,0,0,0,0,1,0,0,0,0,1,0,0,19.87,10.56475,6.42837,-0.24627,0.00069,0.01368,2.36173,0.034,1.12573,-1.01762,0.44605,-0.16076,31.96849,43.14407,-335.28627,589.14749,85.58834677227723,0.03575444554455445,0.03776777227722772,1.900568089108911,0.26050207394048697,0.01836130748422002,0.00034128043282236254,10.645592238658775,0.3932532872655479,0.1838237625570776,0.18031067579908677,0.11530517808219178,0.12186832876712328,0.13269023744292238,0.13317554337899545,0.09833721461187214,0.11156234703196345,0.046918456621004564,0.04652646575342466,0.06259645662100456,0.06869888584474886,0.037426694063926944,0.032896018264840184
0AC2A4,7,10,1,0,0,1,0,0,0,0,0,0,0,0,0,1,2,2,2,1,1,0,0,0,0,0,1,0,0,0,0,0,0,0,1,0,0,0,0,0,1,0,0,0,0,1,0,0,17.76,11.71573,4.68985,-0.01443,-0.01652,-0.00126,1.86166,0.02387,0.68522,-0.42794,0.0034,-0.0066,30.02752,27.7088,-15.7613,60.46734,85.58834677227723,0.03575444554455445,0.03776777227722772,1.900568089108911,0.30209,0.00026,0.0,10.645592238658775,0.3932532872655479,0.15689,0.1119,0.11858,0.10522,0.14097,0.10283,0.09636,0.10873,0.04225,0.04745,0.06255,0.06819,0.03002,0.03455
0AC2A4,7,28,0,1,0,1,0,0,0,0,0,0,0,0,0,1,2,2,2,1,1,0,0,0,0,0,1,0,0,0,0,0,0,0,1,0,0,0,0,0,1,0,0,0,0,1,0,0,7.34,5.56368,0.74083,-0.04679,0.01632,-0.05214,1.57411,0.0,0.00357,0.74286,-0.25107,-0.00018,0.0,0.0,-50.5793,218.42546,66.14067,0.0405,0.0075,5.117,0.2995,0.00117,3e-05,10.0,0.32578,0.32565,0.11876,0.15319,0.13691,0.1874,0.13408,0.1241,0.15531,0.02517,0.02881,0.03946,0.04804,0.0161,0.01652
0AC2A4,7,32,0,0,1,1,0,0,0,0,0,0,0,0,0,1,2,2,2,1,1,0,0,0,0,0,1,0,0,0,0,0,0,0,1,0,0,0,0,0,1,0,0,0,0,1,0,0,5.6,4.25029,0.47464,-0.31714,0.01683,0.00071,2.17949,-0.0002,0.00367,1.24531,-0.34592,-0.01663,10.6968,15.36294,-568.12412,582.1378,69.92187,0.038,0.01233,3.345,0.29749,0.00268,7e-05,9.5,0.32031,0.12453,0.09619,0.10891,0.10931,0.11496,0.08936,0.09859,0.12494,0.02736,0.02879,0.04392,0.04956,0.01717,0.01578
0AC2A4,7,39,1,0,0,0,0,0,0,0,0,0,0,1,0,1,2,2,2,1,1,0,0,0,0,0,1,0,0,0,0,0,0,0,1,0,0,0,0,0,1,0,0,0,0,1,0,0,9.39,6.6558,2.76176,0.02707,0.01584,-0.02884,1.47914,0.01455,0.63641,-0.09298,-0.27515,0.00182,24.91076,29.97471,48.83207,151.29292,68.91506,0.03814,0.01443,2.63957,0.29635,0.00501,0.00016,6.85714,0.31696,0.13312,0.09475,0.09073,0.07683,0.10347,0.07254,0.07731,0.0795,0.02693,0.02415,0.03873,0.03744,0.01949,0.01598
0AC2A4,7,53,1,0,0,0,0,1,0,0,0,0,0,0,0,1,2,2,2,1,1,0,0,0,0,0,1,0,0,0,0,0,0,0,1,0,0,0,0,0,1,0,0,0,0,1,0,0,15.79,9.12744,4.86339,-0.11356,-0.00372,3e-05,1.81649,0.00847,0.80697,-0.17744,0.55694,0.0028,22.32087,33.84083,-315.62388,619.06853,66.35667,0.0495,0.01557,3.8695,0.29658,0.00509,0.00012,7.57143,0.30502,0.12741,0.09432,0.11682,0.09628,0.13828,0.09527,0.09791,0.09811,0.02524,0.02519,0.03593,0.03792,0.01869,0.01718
0AC2A4,7,80,0,0,0,0,1,0,0,0,0,0,0,0,0,1,2,2,2,1,1,0,0,0,0,0,1,0,0,0,0,0,0,0,1,0,0,0,0,0,1,0,0,0,0,1,0,0,10.39,8.1945,0.88623,-0.20375,-0.03805,-0.00375,2.91571,-0.00179,0.84107,-1.86643,-0.65982,0.02286,25.73036,20.29853,-191.05107,96.05691,67.45292,0.0605,0.007,8.246,0.29902,0.0022,0.0,10.0,0.31849,0.12081,0.07592,0.15252,0.1258,0.17926,0.1093,0.14157,0.14889,0.02621,0.02678,0.03719,0.03976,0.01979,0.01867
0AC2A4,7,84,0,1,0,1,0,0,0,0,0,0,0,0,0,1,2,2,2,1,1,0,0,0,0,0,1,0,0,0,0,0,0,0,1,0,0,0,0,0,1,0,0,0,0,1,0,0,12.59,9.56206,2.63239,0.12378,0.07058,0.00551,1.00286,0.00071,0.55031,1.30418,0.23031,0.00755,9.73847,19.11251,157.51612,218.98699,68.79667,0.06033,0.009,7.67967,0.2976,0.00236,6e-05,8.0,0.32563,0.14913,0.11245,0.15778,0.15594,0.20474,0.16042,0.12653,0.16056,0.02916,0.03085,0.04721,0.05234,0.018,0.01752
0AC2A4,7,91,0,0,1,1,0,0,0,0,0,0,0,0,0,1,2,2,2,1,1,0,0,0,0,0,1,0,0,0,0,0,0,0,1,0,0,0,0,0,1,0,0,0,0,1,0,0,5.71,5.338,0.24099,0.34833,0.29033,0.00214,0.0219,-0.00095,0.00429,2.00071,-1.37048,-0.01357,11.39119,13.77454,612.20048,51.26068,66.83316,0.0535,0.0175,3.0785,0.29633,0.00316,8e-05,6.0,0.33268,0.14258,0.10232,0.13322,0.11735,0.15899,0.11194,0.10156,0.12512,0.02883,0.02365,0.03933,0.0351,0.02177,0.0161
0AC2A4,7,94,0,0,0,0,1,0,0,0,0,0,0,0,0,1,2,2,2,1,1,0,0,0,0,0,1,0,0,0,0,0,0,0,1,0,0,0,0,0,1,0,0,0,0,1,0,0,13.02,8.0561,1.92876,0.08497,-0.05358,-0.00337,1.31213,0.01751,1.0058,0.52627,-0.64651,0.00183,29.77657,34.78305,90.45355,267.0887,71.06247,0.041,0.01283,3.65667,0.29691,0.00199,4e-05,6.57143,0.32719,0.12752,0.08202,0.10206,0.08788,0.10918,0.08656,0.09142,0.08946,0.0282,0.02393,0.03861,0.03715,0.02213,0.01585
0AC2A4,7,106,1,0,0,1,0,0,0,0,0,1,0,0,0,1,2,2,2,1,1,0,0,0,0,0,1,0,0,0,0,0,0,0,1,0,0,0,0,0,1,0,0,0,0,1,0,0,16.78,15.173,1.24565,-0.03554,0.03689,-0.04768,1.62607,-0.05232,1.79464,0.90339,0.05232,0.02179,36.17161,27.25755,-19.04554,27.23027,73.6187,0.018,0.0055,3.3325,0.29824,0.00133,1e-05,8.0,0.31217,0.11875,0.0724,0.1048,0.0903,0.13836,0.08863,0.07181,0.08916,0.021,0.02093,0.0249,0.03131,0.01846,0.01434
0AC2A4,7,110,0,0,0,0,0,0,0,0,0,0,0,0,1,1,2,2,2,1,1,0,0,0,0,0,1,0,0,0,0,0,0,0,1,0,0,0,0,0,1,0,0,0,0,1,0,0,16.14,7.34281,5.17545,-0.16004,-0.03599,-0.00161,2.74612,0.00035,0.00475,-0.81443,0.3242,-0.0682,0.20012,1.39371,-137.49094,200.0967,85.58834677227723,0.03575444554455445,0.03776777227722772,1.900568089108911,0.26050207394048697,0.01836130748422002,0.00034128043282236254,10.645592238658775,0.3932532872655479,0.1838237625570776,0.18031067579908677,0.11530517808219178,0.12186832876712328,0.13269023744292238,0.13317554337899545,0.09833721461187214,0.11156234703196345,0.046918456621004564,0.04652646575342466,0.06259645662100456,0.06869888584474886,0.037426694063926944,0.032896018264840184
13790E,1,27,1,0,0,1,0,0,0,0,0,0,0,0,0,2,2,2,2,2,1,0,0,0,0,0,1,0,0,0,0,0,0,0,1,0,0,0,0,0,1,0,0,0,0,0,0,1,10.87,6.13045,1.86018,-0.17561,-0.00101,-0.01233,2.39751,-0.00016,0.47494,1.13617,-0.42565,-0.00585,13.2449,17.83376,-250.54304,460.117,90.22445,0.04238,0.03675,1.58525,0.2922,0.00202,6e-05,15.75,0.29387,0.19559,0.14182,0.11433,0.08648,0.12906,0.09726,0.09882,0.07262,0.03334,0.03082,0.05176,0.05171,0.02222,0.0181
13790E,1,45,0,1,0,1,0,0,0,0,0,0,0,0,0,2,2,2,2,2,1,0,0,0,0,0,1,0,0,0,0,0,0,0,1,0,0,0,0,0,1,0,0,0,0,0,0,1,10.75,9.08789,1.39528,0.01,0.03905,-0.05161,1.96339,-0.0525,0.06179,-0.98071,0.12321,-0.00696,0.89911,4.33487,14.60036,41.72171,92.33194,0.0535,0.037,1.4665,0.29261,0.00251,7e-05,15.0,0.30598,0.29293,0.17618,0.11693,0.11823,0.14942,0.12456,0.07824,0.10893,0.03518,0.03775,0.0545,0.06263,0.0232,0.02235
13790E,1,49,0,0,1,1,0,0,0,0,0,0,0,0,0,2,2,2,2,2,1,0,0,0,0,0,1,0,0,0,0,0,0,0,1,0,0,0,0,0,1,0,0,0,0,0,0,1,13.0,8.76359,2.8926,0.11035,-0.02346,-0.00257,1.17584,-0.00035,1.13938,-0.26735,-1.18832,-9e-05,27.11814,31.19652,127.0554,154.51687,94.14746,0.04525,0.048,0.98475,0.29177,0.00176,5e-05,16.5,0.29715,0.29206,0.17584,0.16262,0.115,0.1943,0.12472,0.13625,0.10372,0.03344,0.03542,0.04647,0.05395,0.02529,0.02372
13790E,1,57,1,0,0,0,0,0,0,0,0,0,0,0,0,2,2,2,2,2,1,0,0,0,0,0,1,0,0,0,0,0,0,0,0,0,0,0,1,0,1,0,0,0,0,0,0,1,13.43,7.44907,4.83474,-0.12794,0.00175,-0.01897,2.12748,6e-05,0.00587,-0.35723,1.13058,-0.01587,1.98948,7.03386,-427.09974,576.82407,93.42092,0.04367,0.05517,0.83417,0.29116,0.00189,5e-05,17.66667,0.30143,0.21759,0.14149,0.14282,0.11191,0.17497,0.11046,0.11907,0.1195,0.03322,0.03744,0.04616,0.05077,0.02472,0.0289
13790E,1,68,1,0,0,0,0,0,1,0,0,0,0,0,0,2,2,2,2,2,1,0,0,0,0,0,1,0,0,0,0,0,0,0,1,0,0,0,0,0,1,0,0,0,0,0,0,1,11.85,5.94581,3.86324,-0.03705,0.0119,0.01707,1.8806,-0.00544,0.51004,0.05913,0.13422,0.00193,14.80962,19.63965,169.19993,509.10673,94.11105,0.04232,0.04211,1.22416,0.29175,0.00173,4e-05,18.9,0.28903,0.27902,0.18906,0.18891,0.13253,0.22629,0.15112,0.14914,0.11424,0.08889,0.05372,0.09433,0.06966,0.08561,0.04387
13790E,1,107,0,0,0,0,1,0,0,0,0,0,0,0,0,2,2,2,2,2,1,0,0,0,0,0,1,0,0,0,0,0,0,0,1,0,0,0,0,0,1,0,0,0,0,0,0,1,8.96,6.08449,1.7077,0.18704,-0.03705,0.02857,0.89199,0.00015,0.00332,-0.07724,-0.4924,0.00796,12.62495,13.74175,238.43648,268.74951,91.87924,0.06429,0.02843,2.41114,0.2898,0.00518,0.00012,15.71429,0.29467,0.23811,0.14203,0.1694,0.13396,0.19841,0.14414,0.13715,0.12065,0.05673,0.04386,0.07743,0.06481,0.04375,0.03082
13790E,1,121,0,1,0,1,0,0,0,0,0,0,0,0,0,2,2,2,2,2,1,0,0,0,0,0,1,0,0,0,0,0,0,0,1,0,0,0,0,0,1,0,0,0,0,0,0,1,8.07,5.5925,2.19537,-0.22536,0.02657,0.00286,3.02786,0.10804,1.57,1.67679,-0.20125,0.00911,31.42298,20.04107,-340.48596,172.64938,92.58622,0.0485,0.016,3.218,0.29066,0.00412,0.00013,16.0,0.28981,0.37459,0.19199,0.17268,0.13246,0.16463,0.14128,0.16986,0.11544,0.07867,0.05474,0.09881,0.0725,0.06855,0.04559
13790E,1,125,0,0,1,1,0,0,0,0,0,0,0,0,0,2,2,2,2,2,1,0,0,0,0,0,1,0,0,0,0,0,0,0,0,0,0,0,1,0,1,0,0,0,0,0,0,1,11.6,10.01467,1.22545,0.01326,-0.03021,-0.00326,2.0486,0.0014,1.75256,1.03884,-0.46884,0.00884,33.62095,16.52872,13.365,66.60523,92.1338,0.038,0.0165,2.4575,0.29072,0.00442,0.00012,18.0,0.2908,0.14366,0.11854,0.11095,0.11178,0.09635,0.11674,0.12307,0.11102,0.04536,0.03834,0.06289,0.05864,0.03608,0.0261
13790E,1,128,0,0,0,0,1,0,0,0,0,0,0,0,0,2,2,2,2,2,1,0,0,0,0,0,1,0,0,0,0,0,0,0,0,0,0,0,1,0,1,0,0,0,0,0,0,1,13.61,9.28897,2.79094,-0.19624,-0.02006,0.01492,2.74152,0.0001,0.01853,-1.24244,0.50305,-0.0031,10.41015,12.95754,-234.8765,216.5996,91.68593,0.04043,0.02486,1.688,0.29083,0.00363,6e-05,22.25,0.27759,0.2155,0.15777,0.16829,0.15064,0.1953,0.1484,0.15377,0.15661,0.04267,0.0405,0.06345,0.068,0.02944,0.02318
13790E,1,142,1,0,0,1,0,0,0,0,0,1,0,0,0,2,2,2,2,2,1,0,0,0,0,0,1,0,0,0,0,0,0,0,0,0,0,0,1,0,1,0,0,0,0,0,0,1,7.75,4.68143,3.19959,-0.0252,0.02943,0.0021,2.6376,-0.0002,0.0038,0.9156,-0.423,-0.0062,2.9046,4.91709,-27.5627,62.51255,90.85101,0.04433,0.009,5.10067,0.29255,0.00329,5e-05,20.4,0.27887,0.20751,0.15081,0.12523,0.08612,0.15847,0.10094,0.08528,0.06703,0.02603,0.02403,0.03727,0.03842,0.01884,0.0149
13790E,1,151,0,0,0,0,0,0,0,0,0,0,0,0,1,2,2,2,2,2,1,0,0,0,0,0,1,0,0,0,0,0,0,0,0,0,0,0,1,0,1,0,0,0,0,0,0,1,12.008383185125302,8.082692691996765,2.537610743734842,-0.016849862681744748,0.008117075928917611,-0.0005175686591276249,1.7611988529886915,0.0009500726978998386,0.6349220032310177,0.4109213085621971,-0.2409137722132472,0.0014233441033925692,20.391801875505255,18.81081695230396,-30.02769859337106,247.92482319320936,85.58834677227723,0.03575444554455445,0.03776777227722772,1.900568089108911,0.26050207394048697,0.01836130748422002,0.00034128043282236254,10.645592238658775,0.3932532872655479,0.1838237625570776,0.18031067579908677,0.11530517808219178,0.12186832876712328,0.13269023744292238,0.13317554337899545,0.09833721461187214,0.11156234703196345,0.046918456621004564,0.04652646575342466,0.06259645662100456,0.06869888584474886,0.037426694063926944,0.032896018264840184
13790E,2,13,1,0,0,1,0,0,0,0,0,0,0,0,0,2,2,2,2,2,1,0,0,0,0,0,1,0,0,0,0,0,0,0,1,0,0,0,0,0,0,1,0,0,0,1,0,0,12.008383185125302,8.082692691996765,2.537610743734842,-0.016849862681744748,0.008117075928917611,-0.0005175686591276249,1.7611988529886915,0.0009500726978998386,0.6349220032310177,0.4109213085621971,-0.2409137722132472,0.0014233441033925692,20.391801875505255,18.81081695230396,-30.02769859337106,247.92482319320936,85.58834677227723,0.03575444554455445,0.03776777227722772,1.900568089108911,0.26050207394048697,0.01836130748422002,0.00034128043282236254,10.645592238658775,0.3932532872655479,0.1838237625570776,0.18031067579908677,0.11530517808219178,0.12186832876712328,0.13269023744292238,0.13317554337899545,0.09833721461187214,0.11156234703196345,0.046918456621004564,0.04652646575342466,0.06259645662100456,0.06869888584474886,0.037426694063926944,0.032896018264840184
13790E,2,3,0,1,0,1,0,0,0,0,0,0,0,0,0,2,2,2,2,2,1,0,0,0,0,0,1,0,0,0,0,0,0,0,1,0,0,0,0,0,0,1,0,0,0,1,0,0,15.26,8.01217,4.47151,-0.08491,0.00917,0.00049,2.38742,0.00691,0.58862,0.09016,-0.11271,0.00396,15.68609,18.92298,-117.39907,346.38006,87.44433,0.05367,0.02067,2.607,0.29083,0.00217,4e-05,11.33333,0.32569,0.29539,0.21982,0.15724,0.13318,0.20777,0.15682,0.1046,0.10569,0.04946,0.04532,0.06302,0.06998,0.04149,0.03022
13790E,2,35,0,0,1,1,0,0,0,0,0,0,0,0,0,2,2,2,2,2,1,0,0,0,0,0,1,0,0,0,0,0,0,0,1,0,0,0,0,0,0,1,0,0,0,1,0,0,10.93,7.74517,2.22219,-0.07224,-0.04681,-0.03894,2.25482,0.03612,1.21953,1.20365,0.05929,-0.01718,31.50588,14.38817,-65.82694,215.15064,87.53169,0.048,0.02233,2.17667,0.29199,0.00183,5e-05,12.0,0.31997,0.25664,0.26463,0.13192,0.12895,0.16177,0.15114,0.09765,0.10067,0.0372,0.03975,0.05105,0.06153,0.02847,0.02703
13790E,2,41,1,0,0,0,0,0,0,0,0,0,0,0,0,2,2,2,2,2,1,0,0,0,0,0,1,0,0,0,0,0,0,0,1,0,0,0,0,0,0,1,0,0,0,1,0,0,12.99,9.0913,2.63209,0.08565,-0.00434,0.01844,1.06662,-0.01981,0.61416,-0.53357,-0.80812,0.00571,19.94188,30.25939,96.3939,153.13175,88.98467,0.04067,0.018,2.4795,0.29187,0.00142,3e-05,18.33333,0.28505,0.22302,0.21622,0.14352,0.12667,0.16598,0.14262,0.1188,0.11614,0.04721,0.0364,0.07415,0.05806,0.03193,0.02358
13790E,2,52,1,0,0,0,0,0,1,0,0,0,0,0,0,2,2,2,2,2,1,0,0,0,0,0,1,0,0,0,0,0,0,0,1,0,0,0,0,0,0,1,0,0,0,1,0,0,12.68,6.82434,4.74099,-0.12006,0.00026,0.00026,2.12755,-0.00071,0.0051,-0.37923,1.10697,0.00148,1.00839,4.39418,-368.00006,609.45872,88.25326,0.0402,0.011,4.069,0.29139,0.00101,3e-05,22.0,0.28024,0.19174,0.16537,0.11247,0.1288,0.13358,0.14174,0.09753,0.11701,0.04214,0.04624,0.06073,0.07172,0.03138,0.03039
13790E,2,63,0,0,0,0,1,0,0,0,0,0,0,0,0,2,2,2,2,2,1,0,0,0,0,0,1,0,0,0,0,0,0,0,1,0,0,0,0,0,0,1,0,0,0,1,0,0,12.84,6.24503,3.92082,-0.00513,-0.00847,-0.01016,1.67658,-0.01655,0.65867,0.15775,0.02016,0.00082,17.66271,23.9464,134.049,468.02048,90.22774,0.041,0.0119,4.17345,0.29054,0.00139,3e-05,19.5,0.28191,0.37022,0.31146,0.19414,0.16602,0.21771,0.17474,0.16625,0.15734,0.08609,0.06488,0.10493,0.09507,0.07516,0.04676
13790E,2,102,0,1,0,1,0,0,0,0,0,0,0,0,0,2,2,2,2,2,1,0,0,0,0,0,1,0,0,0,0,0,0,0,1,0,0,0,0,0,0,1,0,0,0,1,0,0,9.58,8.1335,1.16983,0.14536,-0.10339,0.04714,0.85054,0.05643,1.51643,0.36893,-0.61929,0.00018,26.18411,20.51957,151.32482,168.47957,92.77301,0.057,0.0135,4.2455,0.29017,0.00074,0.0,14.66667,0.28389,0.23731,0.17336,0.14673,0.14796,0.17879,0.16572,0.11293,0.11897,0.06495,0.05726,0.08916,0.06313,0.05158,0.05304
13790E,2,106,0,0,1,1,0,0,0,0,0,0,0,0,0,2,2,2,2,2,1,0,0,0,0,0,1,0,0,0,0,0,0,0,1,0,0,0,0,0,0,1,0,0,0,1,0,0,7.31,6.44875,0.5622,0.18732,-0.00277,0.04239,0.76437,-0.00042,0.00254,-1.08113,-0.70028,0.0031,11.6162,11.84611,227.32268,209.121,93.06814,0.053,0.013,4.126,0.29042,0.0018,5e-05,12.66667,0.28888,0.26767,0.17362,0.14892,0.10003,0.17118,0.10711,0.12924,0.0899,0.04414,0.04572,0.05095,0.06537,0.04059,0.03389
13790E,2,111,0,0,0,0,1,0,0,0,0,0,0,0,0,2,2,2,2,2,1,0,0,0,0,0,1,0,0,0,0,0,0,0,1,0,0,0,0,0,0,1,0,0,0,1,0,0,13.79,9.01108,3.97986,-0.06352,-0.0029,-0.01424,2.58676,0.00024,0.70557,0.34986,0.245,0.00057,22.67852,29.388,-105.04995,163.59868,91.66869,0.04712,0.02112,2.51175,0.28988,0.00116,3e-05,10.75,0.28511,0.37282,0.30405,0.2101,0.18178,0.27056,0.20893,0.16069,0.15373,0.07098,0.05744,0.07797,0.07916,0.06701,0.04413
13790E,2,126,1,0,0,1,0,0,0,0,0,1,0,0,0,2,2,2,2,2,1,0,0,0,0,0,1,0,0,0,0,0,0,0,1,0,0,0,0,0,0,1,0,0,0,1,0,0,7.38,6.78371,0.30532,-0.3704,-0.05646,-0.00374,3.14,-0.0002,0.00152,-1.76616,1.00505,0.01899,7.72818,7.73342,-420.7402,123.00821,90.29388,0.034,0.015,2.25367,0.28949,0.0008,0.0,13.0,0.33577,0.27334,0.19254,0.15942,0.13221,0.20106,0.15514,0.12146,0.11168,0.04672,0.04682,0.05766,0.05584,0.04002,0.04064
13790E,2,133,0,0,0,0,0,0,0,0,0,0,0,0,1,2,2,2,2,2,1,0,0,0,0,0,1,0,0,0,0,0,0,0,1,0,0,0,0,0,0,1,0,0,0,1,0,0,8.55,5.03902,3.38891,-0.06217,0.0518,0.0035,2.72167,0.0005,0.004,0.6585,-0.53333,-0.01,5.51608,8.17231,-61.96817,117.35407,85.58834677227723,0.03575444554455445,0.03776777227722772,1.900568089108911,0.26050207394048697,0.01836130748422002,0.00034128043282236254,10.645592238658775,0.3932532872655479,0.1838237625570776,0.18031067579908677,0.11530517808219178,0.12186832876712328,0.13269023744292238,0.13317554337899545,0.09833721461187214,0.11156234703196345,0.046918456621004564,0.04652646575342466,0.06259645662100456,0.06869888584474886,0.037426694063926944,0.032896018264840184
13790E,3,9,1,0,0,1,0,0,0,0,0,0,0,0,0,1,2,2,2,2,1,0,0,0,0,0,1,0,0,0,0,0,0,0,1,0,0,0,0,0,1,0,0,0,0,1,0,0,13.23,11.39386,2.02909,0.00191,-0.00162,-0.02662,1.81422,-0.01249,0.51822,-0.16164,0.06969,-0.00369,20.01036,17.45958,1.07182,5.53047,85.58834677227723,0.03575444554455445,0.03776777227722772,1.900568089108911,0.28864,0.00107,2e-05,10.645592238658775,0.3932532872655479,0.23489,0.19842,0.123,0.10123,0.13208,0.10743,0.10927,0.09076,0.0455,0.0328,0.05623,0.0529,0.03916,0.02029
13790E,3,25,0,1,0,1,0,0,0,0,0,0,0,0,0,1,2,2,2,2,1,0,0,0,0,0,1,0,0,0,0,0,0,0,1,0,0,0,0,0,0,1,0,0,0,1,0,0,12.008383185125302,8.082692691996765,2.537610743734842,-0.016849862681744748,0.008117075928917611,-0.0005175686591276249,1.7611988529886915,0.0009500726978998386,0.6349220032310177,0.4109213085621971,-0.2409137722132472,0.0014233441033925692,20.391801875505255,18.81081695230396,-30.02769859337106,247.92482319320936,85.58834677227723,0.03575444554455445,0.03776777227722772,1.900568089108911,0.26050207394048697,0.01836130748422002,0.00034128043282236254,10.645592238658775,0.3932532872655479,0.1838237625570776,0.18031067579908677,0.11530517808219178,0.12186832876712328,0.13269023744292238,0.13317554337899545,0.09833721461187214,0.11156234703196345,0.046918456621004564,0.04652646575342466,0.06259645662100456,0.06869888584474886,0.037426694063926944,0.032896018264840184
13790E,3,3,0,0,1,1,0,0,0,0,0,0,0,0,0,1,2,2,2,2,1,0,0,0,0,0,1,0,0,0,0,0,0,0,1,0,0,0,0,0,0,1,0,0,0,1,0,0,13.23,7.61445,4.20335,-0.07599,-0.02,-0.02055,2.29131,-0.00627,0.47572,0.11541,-0.07457,-0.00439,14.48042,16.45946,-121.59499,346.70781,89.82396,0.04267,0.018,2.39733,0.28897,0.00129,2e-05,25.33333,0.26229,0.24128,0.19219,0.12599,0.10235,0.13958,0.10531,0.10942,0.09516,0.04519,0.03339,0.05863,0.05437,0.03712,0.02029
13790E,3,35,1,0,0,0,0,0,0,0,0,0,0,0,0,1,2,2,2,2,1,0,0,0,0,0,1,0,0,0,0,0,0,0,1,0,0,0,0,0,0,1,0,0,0,1,0,0,10.73,7.25673,2.32826,-0.0278,0.08128,0.0222,1.46131,0.00048,0.82381,-0.00238,-0.18131,-0.00423,17.67435,20.63429,-18.91423,308.50985,92.21093,0.04167,0.01767,2.9335,0.29031,0.00112,3e-05,18.0,0.288,0.28117,0.22497,0.18447,0.14869,0.22663,0.17002,0.1467,0.12972,0.04608,0.04548,0.05817,0.07066,0.03869,0.0305
13790E,3,47,1,0,0,0,0,0,1,0,0,0,0,0,0,1,2,2,2,2,1,0,0,0,0,0,1,0,0,0,0,0,0,0,1,0,0,0,0,0,0,1,0,0,0,1,0,0,13.23,9.40708,3.1368,-0.01835,-0.07285,-0.03179,1.40953,5e-05,0.46241,0.01835,0.36665,0.00717,15.79255,24.13463,-71.45434,353.16569,91.01406,0.04237,0.05437,0.82913,0.28993,0.00055,0.0,16.5,0.29233,0.23324,0.19007,0.15261,0.13178,0.20097,0.15469,0.10855,0.11262,0.04251,0.03881,0.05705,0.06183,0.03412,0.02497
13790E,3,62,0,0,0,0,1,0,0,0,0,0,0,0,0,1,2,2,2,2,1,0,0,0,0,0,1,0,0,0,0,0,0,0,1,0,0,0,0,0,0,1,0,0,0,1,0,0,12.69,5.97862,4.36798,-0.09318,0.02228,0.001,2.31552,-2e-05,0.87659,-0.46214,0.10962,0.0004,20.05508,24.33405,-55.18481,584.1791,90.30567,0.03663,0.01794,3.23175,0.28884,0.00104,3e-05,14.82353,0.28695,0.24441,0.19536,0.16194,0.14913,0.18712,0.16217,0.13725,0.13119,0.063,0.04871,0.08033,0.07641,0.05244,0.03177
13790E,3,94,0,1,0,1,0,0,0,0,0,0,0,0,0,1,2,2,2,2,1,0,0,0,0,0,1,0,0,0,0,0,0,0,1,0,0,0,0,0,0,1,0,0,0,1,0,0,11.17,7.744,2.00831,0.01071,0.02746,0.00214,0.89714,-0.00024,0.00786,1.84286,-0.56643,0.02214,0.0,0.0,13.96881,21.24234,91.10023,0.035,0.012,3.012,0.28829,0.0014,3e-05,14.0,0.28153,0.15541,0.13484,0.15474,0.13239,0.19196,0.14152,0.13486,0.13327,0.05554,0.04981,0.06678,0.07636,0.04836,0.03294
13790E,3,97,0,0,1,1,0,0,0,0,0,0,0,0,0,1,2,2,2,2,1,0,0,0,0,0,1,0,0,0,0,0,0,0,1,0,0,0,0,0,0,1,0,0,0,1,0,0,5.63,4.87176,0.50501,0.33561,0.04122,0.00255,0.01806,0.0,0.00041,1.40112,-0.2399,-0.00316,4.95429,9.03607,537.41888,156.42668,91.08093,0.03375,0.00925,3.673,0.28792,0.00105,2e-05,17.0,0.27744,0.23481,0.19047,0.18374,0.16936,0.24936,0.19947,0.13044,0.15077,0.06606,0.0447,0.08342,0.06495,0.05597,0.0318
13790E,3,104,0,0,0,0,1,0,0,0,0,0,0,0,0,1,2,2,2,2,1,0,0,0,0,0,1,0,0,0,0,0,0,0,1,0,0,0,0,0,0,1,0,0,0,1,0,0,8.72,6.31969,1.59331,0.08799,-0.05644,0.01386,1.18641,0.01641,0.56527,0.05462,-0.32418,0.00125,17.7338,17.0967,77.64141,317.82418,92.25855,0.03667,0.02233,1.73533,0.28956,0.00157,4e-05,17.71429,0.28115,0.24422,0.19097,0.1582,0.13645,0.17963,0.14557,0.13094,0.12619,0.05817,0.04415,0.08099,0.07267,0.04511,0.027
13790E,3,117,1,0,0,1,0,0,0,0,0,1,0,0,0,1,2,2,2,2,1,0,0,0,0,0,1,0,0,0,0,0,0,0,1,0,0,0,0,0,0,1,0,0,0,1,0,0,14.16,11.336,2.68902,-0.04159,0.0421,0.00198,1.96873,0.00175,0.89841,0.62548,-0.07429,0.00762,27.13198,30.61826,-38.69016,87.83031,91.437,0.0384,0.0392,0.9768,0.28811,0.00097,2e-05,17.2,0.29201,0.21756,0.16679,0.19862,0.15625,0.25731,0.18834,0.13718,0.12504,0.0551,0.03864,0.07577,0.06453,0.04276,0.02247
13790E,3,126,0,0,0,0,0,0,0,0,0,0,0,0,1,1,2,2,2,2,1,0,0,0,0,0,1,0,0,0,0,0,0,0,1,0,0,0,0,0,0,1,0,0,0,1,0,0,11.23,6.14145,2.85009,-0.18139,6e-05,-0.00012,2.96057,-0.00033,0.00465,-0.61967,0.25008,0.00127,3.69792,6.65462,-190.78102,211.49112,85.58834677227723,0.03575444554455445,0.03776777227722772,1.900568089108911,0.26050207394048697,0.01836130748422002,0.00034128043282236254,10.645592238658775,0.3932532872655479,0.1838237625570776,0.18031067579908677,0.11530517808219178,0.12186832876712328,0.13269023744292238,0.13317554337899545,0.09833721461187214,0.11156234703196345,0.046918456621004564,0.04652646575342466,0.06259645662100456,0.06869888584474886,0.037426694063926944,0.032896018264840184
13790E,4,42,1,0,0,1,0,0,0,0,0,0,0,0,0,1,1,2,2,2,1,0,0,0,0,0,1,0,0,0,0,0,0,0,1,0,0,0,0,0,0,1,0,0,0,1,0,0,14.17,6.88355,2.80679,-0.07478,0.0144,0.0103,1.96142,0.00902,0.36579,0.37478,-0.56365,-0.00033,18.62083,24.62853,-162.6395,506.03231,90.13071,0.04682,0.04082,1.20973,0.2834,0.00166,4e-05,12.16667,0.29344,0.32779,0.23065,0.18703,0.16813,0.20951,0.15843,0.16331,0.17608,0.04555,0.03923,0.06919,0.06638,0.0308,0.02231
13790E,4,65,0,1,0,1,0,0,0,1,1,0,0,0,0,1,1,2,2,2,1,0,0,0,0,0,1,0,0,0,0,0,0,0,1,0,0,0,0,0,0,1,0,0,0,0,0,1,14.77,9.77937,4.2102,-0.09444,-0.05992,-0.02889,2.38855,0.00017,0.00744,-0.11521,1.75795,-0.00692,3.95153,11.81936,-209.46771,411.26855,92.32804,0.038,0.02125,1.784,0.28361,0.00106,4e-05,17.5,0.28218,0.20813,0.14813,0.17004,0.12935,0.19893,0.12923,0.15723,0.12898,0.03144,0.03174,0.04752,0.0556,0.02174,0.01671
13790E,4,73,0,0,1,1,0,0,0,0,0,0,0,0,0,1,1,2,2,2,1,0,0,0,0,0,1,0,0,0,0,0,0,0,1,0,0,0,0,0,0,1,0,0,0,1,0,0,2.59,0.96073,0.84957,-0.18364,0.05574,0.00159,1.76212,-0.02348,0.26462,-0.32848,-0.00212,0.00788,6.14725,9.91855,479.15924,1084.01427,91.42858,0.05,0.0228,2.388,0.28334,0.00116,4e-05,22.4,0.27817,0.28239,0.17562,0.21745,0.16364,0.26679,0.16417,0.18873,0.1634,0.07128,0.05235,0.09172,0.09538,0.05906,0.02572
13790E,4,82,1,0,0,0,0,0,0,0,0,0,0,0,0,1,1,2,2,2,1,0,0,0,0,0,1,0,0,0,0,0,0,0,1,0,0,0,0,0,0,1,0,0,0,1,0,0,12.68,8.03516,4.01765,-0.05651,-0.00031,0.00053,2.50868,-0.03138,1.04735,-0.26058,0.77831,-0.00762,28.78746,20.57225,-159.81079,245.0539,90.75994,0.0395,0.01617,2.454,0.28258,0.00083,1e-05,23.14286,0.27244,0.30799,0.21136,0.20924,0.17157,0.24854,0.16781,0.1637,0.17561,0.0545,0.04096,0.08442,0.07786,0.03583,0.01763
13790E,4,95,1,0,0,0,0,0,1,0,0,0,0,0,0,1,1,2,2,2,1,0,0,0,0,0,1,0,0,0,0,0,0,0,1,0,0,0,0,0,0,1,0,0,0,1,0,0,10.84,5.22618,2.9487,0.08474,0.00084,-0.01117,1.47599,0.01151,0.48186,0.13729,-0.37688,-0.00203,11.94625,18.24582,174.63911,314.55075,90.87332,0.04242,0.01832,2.59016,0.28117,0.00157,3e-05,21.89474,0.27125,0.27299,0.20141,0.18814,0.1764,0.21088,0.17147,0.16903,0.17992,0.05794,0.03886,0.08718,0.06728,0.03996,0.02115
13790E,4,132,0,0,0,0,1,0,0,1,0,0,0,0,0,1,1,2,2,2,1,0,0,0,0,0,1,0,0,0,0,0,0,0,1,0,0,0,0,0,0,1,0,0,0,1,0,0,13.47,8.58349,3.7369,-0.06748,-0.0171,-0.0014,2.7632,-0.02404,0.85712,0.3358,0.2702,-0.00172,19.51888,21.71394,-104.79221,168.55861,92.68219,0.04975,0.06488,0.81575,0.28154,0.00097,2e-05,22.66667,0.30483,0.32681,0.21676,0.20107,0.18213,0.25013,0.18988,0.16241,0.16729,0.05805,0.04268,0.08708,0.07666,0.04042,0.02141
13790E,4,149,0,1,0,1,0,0,0,0,0,0,0,0,0,1,1,2,2,2,1,0,0,0,0,0,1,0,0,0,0,0,0,0,1,0,0,0,0,0,0,1,0,0,0,1,0,0,8.2,7.22956,0.48684,-0.33152,0.03583,-0.01939,2.9497,-0.0003,0.00121,-1.58273,0.3397,0.0228,9.41803,8.8249,-354.12023,170.64049,91.25164,0.0454,0.0228,2.4118,0.28166,0.00144,2e-05,21.2,0.33327,0.20625,0.1724,0.17251,0.15482,0.21326,0.18115,0.15395,0.13005,0.05096,0.03304,0.05993,0.05786,0.04497,0.0175
13790E,4,158,0,0,1,1,0,0,0,0,1,0,0,0,0,1,1,2,2,2,1,0,0,0,0,0,1,0,0,0,0,0,0,0,1,0,0,0,0,0,0,1,0,0,0,1,0,0,7.38,3.67217,2.93612,0.00356,-0.00553,0.04041,2.58082,-0.00014,0.00616,1.40781,-0.48137,-0.01589,0.0,0.0,1.51425,8.47878,91.77609,0.03533,0.02067,2.128,0.28384,0.00072,0.0,20.66667,0.33812,0.22433,0.13885,0.1421,0.12395,0.16342,0.11144,0.1062,0.12898,0.03425,0.02927,0.04742,0.05083,0.02579,0.01619
13790E,4,163,0,0,0,0,1,0,0,0,0,0,0,0,0,1,1,2,2,2,1,0,0,0,0,0,1,0,0,0,0,0,0,0,1,0,0,0,0,0,0,1,0,0,0,1,0,0,0.0,0.0,0.0,0.0,0.0,0.0,3.14,0.0,0.0,0.00789,0.00842,0.00421,0.0,0.0,-2.61,0.0,85.58834677227723,0.03575444554455445,0.03776777227722772,1.900568089108911,0.28408,0.0002,0.0,20.0,0.34487,0.29059,0.16581,0.33406,0.16054,0.38311,0.14551,0.26601,0.17613,0.07757,0.0504,0.13508,0.08962,0.04785,0.02789
13790E,4,178,1,0,0,1,0,0,0,0,0,1,0,0,0,1,1,2,2,2,1,0,0,0,0,0,1,0,0,0,0,0,0,0,1,0,0,0,0,0,0,1,0,0,0,1,0,0,12.008383185125302,8.082692691996765,2.537610743734842,-0.016849862681744748,0.008117075928917611,-0.0005175686591276249,1.7611988529886915,0.0009500726978998386,0.6349220032310177,0.4109213085621971,-0.2409137722132472,0.0014233441033925692,20.391801875505255,18.81081695230396,-30.02769859337106,247.92482319320936,85.58834677227723,0.03575444554455445,0.03776777227722772,1.900568089108911,0.26050207394048697,0.01836130748422002,0.00034128043282236254,10.645592238658775,0.3932532872655479,0.1838237625570776,0.18031067579908677,0.11530517808219178,0.12186832876712328,0.13269023744292238,0.13317554337899545,0.09833721461187214,0.11156234703196345,0.046918456621004564,0.04652646575342466,0.06259645662100456,0.06869888584474886,0.037426694063926944,0.032896018264840184
13790E,4,185,0,0,0,0,0,0,0,0,0,0,0,0,1,1,1,2,2,2,1,0,0,0,0,0,1,0,0,0,0,0,0,0,1,0,0,0,0,0,0,1,0,0,0,1,0,0,12.008383185125302,8.082692691996765,2.537610743734842,-0.016849862681744748,0.008117075928917611,-0.0005175686591276249,1.7611988529886915,0.0009500726978998386,0.6349220032310177,0.4109213085621971,-0.2409137722132472,0.0014233441033925692,20.391801875505255,18.81081695230396,-30.02769859337106,247.92482319320936,85.58834677227723,0.03575444554455445,0.03776777227722772,1.900568089108911,0.26050207394048697,0.01836130748422002,0.00034128043282236254,10.645592238658775,0.3932532872655479,0.1838237625570776,0.18031067579908677,0.11530517808219178,0.12186832876712328,0.13269023744292238,0.13317554337899545,0.09833721461187214,0.11156234703196345,0.046918456621004564,0.04652646575342466,0.06259645662100456,0.06869888584474886,0.037426694063926944,0.032896018264840184
13790E,5,9,1,0,0,1,0,0,0,0,0,0,0,0,0,1,2,1,2,2,1,0,0,0,0,0,1,0,0,0,0,0,0,0,1,0,0,0,0,0,0,1,0,0,0,1,0,0,15.51,14.32032,1.25551,-0.00437,-0.00559,-0.04962,2.16197,0.00175,0.24137,0.02492,-0.06191,-0.00607,19.2782,22.85308,-2.52672,10.07618,85.58834677227723,0.03575444554455445,0.03776777227722772,1.900568089108911,0.28208,0.00067,1e-05,10.645592238658775,0.3932532872655479,0.24798,0.16653,0.13638,0.12634,0.1662,0.13989,0.11288,0.11644,0.03387,0.03429,0.05551,0.05862,0.02102,0.01927
13790E,5,22,0,1,0,1,0,0,0,0,0,0,0,0,0,1,2,1,2,2,1,0,0,0,0,0,1,0,0,0,0,0,0,0,1,0,0,0,0,0,0,1,0,0,0,1,0,0,9.27,7.378,0.75852,-0.13524,0.18179,-0.06071,2.39714,-0.00357,0.005,0.93905,-0.72238,0.00548,0.97048,3.4375,-115.51762,263.2372,85.58834677227723,0.03575444554455445,0.03776777227722772,1.900568089108911,0.28198,0.00179,4e-05,10.645592238658775,0.3932532872655479,0.29958,0.25702,0.17159,0.12697,0.19928,0.15169,0.14405,0.09921,0.04236,0.03373,0.06953,0.05892,0.02624,0.01871
13790E,5,25,0,0,1,1,0,0,0,0,0,0,0,0,0,1,2,1,2,2,1,0,0,0,0,0,1,0,0,0,0,0,0,0,1,0,0,0,0,0,0,1,0,0,0,1,0,0,12.008383185125302,8.082692691996765,2.537610743734842,-0.016849862681744748,0.008117075928917611,-0.0005175686591276249,1.7611988529886915,0.0009500726978998386,0.6349220032310177,0.4109213085621971,-0.2409137722132472,0.0014233441033925692,20.391801875505255,18.81081695230396,-30.02769859337106,247.92482319320936,85.58834677227723,0.03575444554455445,0.03776777227722772,1.900568089108911,0.26050207394048697,0.01836130748422002,0.00034128043282236254,10.645592238658775,0.3932532872655479,0.1838237625570776,0.18031067579908677,0.11530517808219178,0.12186832876712328,0.13269023744292238,0.13317554337899545,0.09833721461187214,0.11156234703196345,0.046918456621004564,0.04652646575342466,0.06259645662100456,0.06869888584474886,0.037426694063926944,0.032896018264840184
13790E,5,3,1,0,0,0,0,0,0,0,0,0,0,0,0,1,2,1,2,2,1,0,0,0,0,0,1,0,0,0,0,0,0,0,1,0,0,0,0,0,0,1,0,0,0,1,0,0,15.51,9.89365,4.72877,-0.06738,0.00071,-0.025,2.16077,0.01197,0.58317,0.11902,-0.26325,-0.00494,22.8925,29.23049,-73.38713,327.70195,98.2422,0.0664,0.047,1.433,0.28208,0.0012,3e-05,24.0,0.28547,0.30394,0.20796,0.16531,0.13124,0.20744,0.15472,0.12384,0.10635,0.0362,0.0336,0.05909,0.05727,0.02237,0.01888
13790E,5,38,1,0,0,0,0,1,0,0,0,0,0,0,0,1,2,1,2,2,1,0,0,0,0,0,1,0,0,0,0,0,0,0,1,0,0,0,0,0,0,1,0,0,0,1,0,0,18.17,10.34863,5.98175,-0.12609,0.00327,0.02678,2.12148,0.0092,0.84959,-0.33006,0.84746,0.00056,32.51675,38.00567,-46.79036,550.40557,103.0393,0.03475,0.04258,0.76083,0.28134,0.00379,0.0001,17.84615,0.28822,0.27053,0.1904,0.18381,0.13519,0.24118,0.16391,0.14125,0.11079,0.03617,0.03526,0.0575,0.06007,0.02284,0.01981
13790E,5,62,0,0,0,0,1,0,0,0,0,0,0,0,0,1,2,1,2,2,1,0,0,0,0,0,1,0,0,0,0,0,0,0,1,0,0,0,0,0,0,1,0,0,0,1,0,0,15.64,9.73619,3.53418,-0.09937,0.00351,-0.04706,2.99048,-0.02468,1.17714,-0.58183,-0.88921,-0.02159,30.94937,41.72039,-99.19421,151.27,101.10379,0.045,0.0315,1.48975,0.28043,0.00362,7e-05,18.8,0.28048,0.37095,0.2543,0.19713,0.18277,0.24085,0.21216,0.15327,0.1558,0.06409,0.04472,0.09361,0.06845,0.04581,0.02963
