subject,lap,start_time,straight,roundabout_entry,roundabout_exit,zebra_crossing,left_turn,u_turn,bypass_dummy,car,pedestrian,traffic_light,narrow_road,dummy,bend,habituation,traffic,hurry,frustration,surprise,risk_outcome,risk_source_env,risk_source_other_usr,risk_source_driver,risk_source_crash,risk_evaluation,violation_no,violation_roadside_invasion,violation_give_the_way,violation_road_signs,violation_heavy_braking,violation_roadside_exit,violation_slowdown,emotion_na,emotion_neutral,emotion_surprise,emotion_anger,emotion_boredom,emotion_fear,emotion_fun,gaze_na,gaze_complete_expl,gaze_partial_expl,gaze_poor_expl,distraction_na,distraction_no,distraction_reduced_attention,distraction_speaking,max_speed,avg_speed,std_speed,yaw,yaw_rate,roll,roll_rate,pitch,pitch_rate,lat_acce,long_acce,vert_acce,avg_acce_pedal_pos,std_acce_pedal_pos,avg_steer_angle,std_steer_angle,hr,hrv_lf,hrv_hf,hrv_lfhf_ratio,gsr_tonic,gsr_phasic,gsr_peaks,EBRmean,BDmean,ThetaFrontal,ThetaParietal,AlphaFrontal,AlphaParietal,LowerAlphaFrontal,LowerAlphaParietal,UpperAlphaFrontal,UpperAlphaParietal,BetaFrontal,BetaParietal,LowerBetaFrontal,LowerBetaParietal,UpperBetaFrontal,UpperBetaParietal
0AC2A4,-1.4966719560715407,-1.310664376532105,1.3228756555322954,-0.4714045207910318,-0.4714045207910318,0.9128709291752769,-0.4714045207910318,-0.23249527748763854,-0.20313083449424926,-0.22497165354319457,-0.23618515838256413,-0.31473899017839224,-0.11569713380915515,-0.10859306069076735,-0.31622776601683794,1.5566087625856033,0.6533217188282379,0.6694576790986404,0.43274631447734707,0.3834824944236852,-0.08391813582967007,-0.03945149215762357,-0.0739509972887452,-0.48733971724044817,0.0,-0.4887291113694511,0.4897799435089026,-0.4045402364330516,-0.12879315868911084,-0.06245122902105491,-0.027885569326658022,-0.25744908844277653,-0.05583630456296903,3.1622776601683795,-2.6635201562296293,-0.08849211017394924,-0.048336824452283184,0.0,-0.0970142500145332,-0.1190982668350827,0.4824506406770078,-0.47877589854912145,-0.03945149215762358,-0.027885569326658022,3.035504194410825,-2.4177974854919224,-0.03945149215762357,-0.22113289104342324,1.1557440267047117,0.7621581830470628,1.7223331002764648,0.07219362603219794,-0.18538697874679597,-0.4492958599675452,0.4526216418250907,-0.3713016703765276,0.9949245958239328,-0.6445515869479954,0.4283910791179554,0.04052584029000069,0.5283457281618893,0.2438342517375485,0.10848910544713174,-1.212823478704835,-2.1437379613831102,-0.1170180781530012,-1.073461158673924,0.12059769897362697,0.331382690599799,-0.2995832051078899,-0.2609954711689139,0.2983211226516999,-0.8898482264736263,0.056784853103023086,-0.2448391266802859,0.1073037656636869,-0.41007313061751216,-0.06874520369285132,-0.4244994658995246,0.3071223072626554,-0.37933999268477325,0.08844983473662277,-0.3011671725835374,0.2492075214987492,-0.3005225472801643,-0.03678505234166756,-0.2821104425239002
0AC2A4,-1.4966719560715407,-0.9297962022300983,-0.7559289460184545,2.121320343559643,-0.4714045207910318,0.9128709291752769,-0.4714045207910318,-0.23249527748763854,-0.20313083449424926,-0.22497165354319457,-0.23618515838256413,-0.31473899017839224,-0.11569713380915515,-0.10859306069076735,-0.31622776601683794,1.5566087625856033,0.6533217188282379,0.6694576790986404,0.43274631447734707,0.3834824944236852,-0.08391813582967007,-0.03945149215762357,-0.0739509972887452,-0.48733971724044817,0.0,-0.4887291113694511,0.4897799435089026,-0.4045402364330516,-0.12879315868911084,-0.06245122902105491,-0.027885569326658022,-0.25744908844277653,-0.05583630456296903,3.1622776601683795,-2.6635201562296293,-0.08849211017394924,-0.048336824452283184,0.0,-0.0970142500145332,-0.1190982668350827,0.4824506406770078,-0.47877589854912145,-0.03945149215762358,-0.027885569326658022,3.035504194410825,-2.4177974854919224,-0.03945149215762357,-0.22113289104342324,-0.5914364588191532,-0.40168358905496576,-0.4609348922724208,-0.31408511237937203,1.0658282939232633,0.17966163370451663,0.11721404666259275,-0.11559551052895299,-1.0285325268919272,0.4681836580543578,-0.3154683881779992,0.21696555436471895,-1.3398619740115403,-1.6958318141594724,0.0025148240383682722,0.18545637038385912,-1.9009589307375154,0.6758849447149923,0.08743177960228773,-0.040249586776760486,0.3224107224581242,-0.2893106301113641,-0.2457003973194991,0.0046425763391015305,-0.46364875560108415,-0.22863811628143954,-0.3455422084583453,0.5388844970184078,-0.17400107476565796,0.5775549964667639,-0.22984243588738565,0.5926033694707848,-0.09073360309731483,-0.2636968245936197,-0.5759588641644644,-0.09318937625546327,-0.5197046581618904,-0.3250484764523028,-0.5973837947068233
0AC2A4,-1.4966719560715407,-0.8496134286928337,-0.7559289460184545,-0.4714045207910318,2.121320343559643,0.9128709291752769,-0.4714045207910318,-0.23249527748763854,-0.20313083449424926,-0.22497165354319457,-0.23618515838256413,-0.31473899017839224,-0.11569713380915515,-0.10859306069076735,-0.31622776601683794,1.5566087625856033,0.6533217188282379,0.6694576790986404,0.43274631447734707,0.3834824944236852,-0.08391813582967007,-0.03945149215762357,-0.0739509972887452,-0.48733971724044817,0.0,-0.4887291113694511,0.4897799435089026,-0.4045402364330516,-0.12879315868911084,-0.06245122902105491,-0.027885569326658022,-0.25744908844277653,-0.05583630456296903,3.1622776601683795,-2.6635201562296293,-0.08849211017394924,-0.048336824452283184,0.0,-0.0970142500145332,-0.1190982668350827,0.4824506406770078,-0.47877589854912145,-0.03945149215762358,-0.027885569326658022,3.035504194410825,-2.4177974854919224,-0.03945149215762357,-0.22113289104342324,-1.549567692816111,-1.09259064047387,-1.329010332074909,-1.876267740094624,-0.06319854617272729,-1.4284820928905242,0.8083390369349233,-0.05286311514916196,-1.03085437408044,0.6560657623114571,-0.4710566769743305,-0.08193370584736623,-0.8020708975249552,-0.4846268539616077,-2.4057169879327547,1.7019914582681168,-1.6247078257772212,1.4221466132966336,-0.8463299316198826,0.3282182661286014,0.31960698241385116,-0.28781944986993296,-0.2380528603947917,-0.4725869886891491,-0.6216668552320839,-0.01426687816797219,-0.25333898486894846,0.3127891031868184,-0.19736529248654605,0.5716442078659556,-0.07321921400579363,-0.043551255014751315,-0.3256356266949739,-0.04191935403670097,-0.4685332170308443,-0.04357589542416261,-0.4845366698590983,-0.04216812281992402,-0.42999315262966253
0AC2A4,-1.4966719560715407,-0.7293392683869369,1.3228756555322954,-0.4714045207910318,-0.4714045207910318,-1.0954451150103321,-0.4714045207910318,-0.23249527748763854,-0.20313083449424926,-0.22497165354319457,-0.23618515838256413,-0.31473899017839224,-0.11569713380915515,-0.10859306069076735,-0.31622776601683794,1.5566087625856033,0.6533217188282379,0.6694576790986404,0.43274631447734707,0.3834824944236852,-0.08391813582967007,-0.03945149215762357,-0.0739509972887452,-0.48733971724044817,0.0,-0.4887291113694511,0.4897799435089026,-0.4045402364330516,-0.12879315868911084,-0.06245122902105491,-0.027885569326658022,-0.25744908844277653,-0.05583630456296903,3.1622776601683795,-2.6635201562296293,-0.08849211017394924,-0.048336824452283184,0.0,-0.0970142500145332,-0.1190982668350827,0.4824506406770078,-0.47877589854912145,-0.03945149215762358,-0.027885569326658022,3.035504194410825,-2.4177974854919224,-0.03945149215762357,-0.22113289104342324,0.11740723692067806,0.4116327792583652,-0.16075492549300557,0.29623137070767425,-0.42876229936563776,-0.010601037791656224,-0.8626299224022926,-0.041399327160976794,1.152417779765874,-0.19101916766195404,-0.43543650662776556,0.10900521849001628,0.6495731389195785,1.292426732059379,0.3033151716631468,-0.2345669652946402,-1.1863149601112886,1.0117026955767314,-0.6343407863694439,0.019208444369589656,0.3174574483799082,-0.28069492204976193,-0.23040532347008433,-0.8763952651932974,-1.1763698998245316,-0.0011220183484808438,-0.26892205821482984,0.4050729374037937,-0.09372162267668613,0.5713203290385139,-0.08858487249053452,0.17648895474288487,-0.025786249918593903,0.05897940509054572,-0.44881256683240195,0.1985293736968196,-0.42142438814814154,-0.05562579901556527,-0.45862576245865055
0AC2A4,-1.4966719560715407,-0.5288823345437754,1.3228756555322954,-0.4714045207910318,-0.4714045207910318,-1.0954451150103321,-0.4714045207910318,4.301162633521313,-0.20313083449424926,-0.22497165354319457,-0.23618515838256413,-0.31473899017839224,-0.11569713380915515,-0.10859306069076735,-0.31622776601683794,1.5566087625856033,0.6533217188282379,0.6694576790986404,0.43274631447734707,0.3834824944236852,-0.08391813582967007,-0.03945149215762357,-0.0739509972887452,-0.48733971724044817,0.0,-0.4887291113694511,0.4897799435089026,-0.4045402364330516,-0.12879315868911084,-0.06245122902105491,-0.027885569326658022,-0.25744908844277653,-0.05583630456296903,3.1622776601683795,-2.6635201562296293,-0.08849211017394924,-0.048336824452283184,0.0,-0.0970142500145332,-0.1190982668350827,0.4824506406770078,-0.47877589854912145,-0.03945149215762358,-0.027885569326658022,3.035504194410825,-2.4177974854919224,-0.03945149215762357,-0.22113289104342324,1.1449054380848362,0.4651704072508179,1.9130883667112277,-0.46077882829976374,0.32425610887478795,0.012828335768382045,0.11718886402161663,-0.8222106645784774,0.6210254432906717,-0.5599495757922813,1.2640477466747213,-0.19841722613322962,0.37050632523710425,1.3294359102420137,-1.0742799061732637,1.834037004353304,-1.3649288212012296,1.1497611042643348,-0.694909113583855,0.08985922802091509,0.30082192411721975,-0.2724105873751444,-0.2380528603947917,-0.48105816753548325,-0.45101702434695373,-0.07790652989317495,-0.3018286520595092,0.4650574296448275,0.0804819846502564,0.5162609283734504,0.010379096265148406,0.4267039788183009,0.28410540667701667,-0.04766359032364821,-0.4436229220433381,-0.018023888129072144,-0.40963835963585454,-0.06235463711338589,-0.4567378980743217
0AC2A4,-1.4966719560715407,-0.02773999993587177,-0.7559289460184545,-0.4714045207910318,-0.4714045207910318,-1.0954451150103321,2.121320343559643,-0.23249527748763854,-0.20313083449424926,-0.22497165354319457,-0.23618515838256413,-0.31473899017839224,-0.11569713380915515,-0.10859306069076735,-0.31622776601683794,1.5566087625856033,0.6533217188282379,0.6694576790986404,0.43274631447734707,0.3834824944236852,-0.08391813582967007,-0.03945149215762357,-0.0739509972887452,-0.48733971724044817,0.0,-0.4887291113694511,0.4897799435089026,-0.4045402364330516,-0.12879315868911084,-0.06245122902105491,-0.027885569326658022,-0.25744908844277653,-0.05583630456296903,3.1622776601683795,-2.6635201562296293,-0.08849211017394924,-0.048336824452283184,0.0,-0.0970142500145332,-0.1190982668350827,0.4824506406770078,-0.47877589854912145,-0.03945149215762358,-0.027885569326658022,3.035504194410825,-2.4177974854919224,-0.03945149215762357,-0.22113289104342324,0.2453025826352041,-0.08456327905543051,-0.28054551143239376,-0.45685522506551723,-1.3810880689358966,-0.23883545264375317,1.312482917958696,-0.12705929851713815,-1.0259000100091766,-0.5980715337501191,-1.9751024385665468,-0.11014838527741556,-0.6785201256591946,-0.4451348910982026,-0.37679213666438716,-0.531365189537795,-1.597306297242607,1.4221466132966336,-0.2658834624817767,-0.16781812375120578,0.3044667861747751,-0.2868253297089789,-0.2609954711689139,-1.0232356396468985,-0.06744964645710264,-0.18700307570780822,-0.2567794036595976,0.7420114698893276,0.2564612725239861,0.8575482427899849,0.25645783486978685,0.6127199123493048,0.4694509624710807,-0.14806285064333446,-0.3686325548413665,-0.1464227247869018,-0.41895312410524266,-0.14552307600244876,-0.2799079340755165
0AC2A4,-1.4966719560715407,0.05244277360139281,-0.7559289460184545,2.121320343559643,-0.4714045207910318,0.9128709291752769,-0.4714045207910318,-0.23249527748763854,-0.20313083449424926,-0.22497165354319457,-0.23618515838256413,-0.31473899017839224,-0.11569713380915515,-0.10859306069076735,-0.31622776601683794,1.5566087625856033,0.6533217188282379,0.6694576790986404,0.43274631447734707,0.3834824944236852,-0.08391813582967007,-0.03945149215762357,-0.0739509972887452,-0.48733971724044817,0.0,-0.4887291113694511,0.4897799435089026,-0.4045402364330516,-0.12879315868911084,-0.06245122902105491,-0.027885569326658022,-0.25744908844277653,-0.05583630456296903,3.1622776601683795,-2.6635201562296293,-0.08849211017394924,-0.048336824452283184,0.0,-0.0970142500145332,-0.1190982668350827,0.4824506406770078,-0.47877589854912145,-0.03945149215762358,-0.027885569326658022,3.035504194410825,-2.4177974854919224,-0.03945149215762357,-0.22113289104342324,0.0025181975500018546,0.5608094480913414,-0.628913924763293,0.0751853734983109,1.596646894449955,0.4369807881483852,0.6654527320357557,0.005092701902218595,0.5240964986885304,-0.1427085019813118,0.5397013646765764,0.009764002300294117,-0.11864791981801387,0.6782665781833186,0.13979827802907036,-0.30199213689965526,-1.2861931189002933,0.06954733899240867,-0.07660743993674232,-0.4774491488207019,0.298485474080325,-0.2773811881799149,-0.2609954711689139,-1.4637545604130977,0.09858474416209528,0.31892926016398115,-0.1322767189532829,0.8293734996147308,0.32057268595010335,1.0140626861511144,0.22587865313282696,0.5736044123077384,0.5580849973973349,-0.07638477175838426,-0.505379695033197,0.038403461314252645,-0.4558319875146571,-0.1043425868437865,-0.5146324058604074
0AC2A4,-1.4966719560715407,0.19276262729160581,-0.7559289460184545,-0.4714045207910318,2.121320343559643,0.9128709291752769,-0.4714045207910318,-0.23249527748763854,-0.20313083449424926,-0.22497165354319457,-0.23618515838256413,-0.31473899017839224,-0.11569713380915515,-0.10859306069076735,-0.31622776601683794,1.5566087625856033,0.6533217188282379,0.6694576790986404,0.43274631447734707,0.3834824944236852,-0.08391813582967007,-0.03945149215762357,-0.0739509972887452,-0.48733971724044817,0.0,-0.4887291113694511,0.4897799435089026,-0.4045402364330516,-0.12879315868911084,-0.06245122902105491,-0.027885569326658022,-0.25744908844277653,-0.05583630456296903,3.1622776601683795,-2.6635201562296293,-0.08849211017394924,-0.048336824452283184,0.0,-0.0970142500145332,-0.1190982668350827,0.4824506406770078,-0.47877589854912145,-0.03945149215762358,-0.027885569326658022,3.035504194410825,-2.4177974854919224,-0.03945149215762357,-0.22113289104342324,-1.0033028263744064,-0.378205866888195,-1.2889423078120434,2.4986970012115304,-0.1657853215305812,-0.06553887924278044,-2.1744062821749557,-0.05286311514916196,-1.0272571460418989,2.0628075826335643,-0.5499220633863117,-0.12121872824823353,-0.9801378659791466,-1.010150512910783,2.144189087568677,-1.1519235079583727,-1.3989644361935156,-1.3763346438845212,0.314563006656329,-0.785693559357867,0.2604480674796838,-0.2329771543239651,-0.19216763884654733,-1.4637545604130977,0.09858474416209528,-0.11068181913472613,-0.3018691275746933,1.33242293369082,0.32842306310432184,1.3304113308546492,0.4190143308197442,1.167663308177113,0.22330595168449996,-0.0691420390487552,-0.5126451977378864,0.1465736255301357,-0.46324577964335384,-0.2504929503284504,-0.5316231853193673
0AC2A4,-1.4966719560715407,0.25289970744455426,-0.7559289460184545,-0.4714045207910318,-0.4714045207910318,-1.0954451150103321,2.121320343559643,-0.23249527748763854,-0.20313083449424926,-0.22497165354319457,-0.23618515838256413,-0.31473899017839224,-0.11569713380915515,-0.10859306069076735,-0.31622776601683794,1.5566087625856033,0.6533217188282379,0.6694576790986404,0.43274631447734707,0.3834824944236852,-0.08391813582967007,-0.03945149215762357,-0.0739509972887452,2.051956704170308,0.0,1.9876266615930827,-2.041733258482895,2.4719419972096963,-0.12879315868911084,-0.06245122902105491,-0.027885569326658022,-0.25744908844277653,-0.05583630456296903,3.1622776601683795,-2.6635201562296293,-0.08849211017394924,-0.048336824452283184,0.0,-0.0970142500145332,-0.1190982668350827,0.4824506406770078,-0.47877589854912145,-0.03945149215762358,-0.027885569326658022,3.035504194410825,-2.4177974854919224,-0.03945149215762357,-0.22113289104342324,-0.5242372093759274,-0.3972535542956361,-0.5064586457956736,0.709484881354689,-1.0470014295208496,-0.1447140036870477,-0.6473812986579087,-0.02324832951301695,-0.44720412482716015,-0.26163267386968025,-0.5155104737732823,-0.01766693603447607,-0.3057875608344934,0.11211954940836848,0.611871785714731,0.13698133397136678,-1.3075434638119185,0.30275411042417183,0.05512867175460176,-0.4798452187325697,0.2534387173690002,-0.2369536349677815,-0.19216763884654733,-0.8973727762001836,-0.3199628125853482,-0.10691787249037832,-0.29268118562790096,0.38323242997244295,0.03973478894502736,0.4897028645232432,0.057693153579548746,0.2596870024503432,0.05717171380548641,-0.24996060738570255,-0.5069365884699162,-0.18709300306492085,-0.47141996070832715,-0.3021704269197127,-0.5184081346290651
0AC2A4,-1.4966719560715407,0.5134937214406642,1.3228756555322954,-0.4714045207910318,-0.4714045207910318,0.9128709291752769,-0.4714045207910318,-0.23249527748763854,-0.20313083449424926,-0.22497165354319457,-0.23618515838256413,3.1772358405077354,-0.11569713380915515,-0.10859306069076735,-0.31622776601683794,1.5566087625856033,0.6533217188282379,0.6694576790986404,0.43274631447734707,0.3834824944236852,-0.08391813582967007,-0.03945149215762357,-0.0739509972887452,-0.48733971724044817,0.0,-0.4887291113694511,0.4897799435089026,-0.4045402364330516,-0.12879315868911084,-0.06245122902105491,-0.027885569326658022,-0.25744908844277653,-0.05583630456296903,3.1622776601683795,-2.6635201562296293,-0.08849211017394924,-0.048336824452283184,0.0,-0.0970142500145332,-0.1190982668350827,0.4824506406770078,-0.47877589854912145,-0.03945149215762358,-0.027885569326658022,3.035504194410825,-2.4177974854919224,-0.03945149215762357,-0.22113289104342324,1.0603644468498106,1.3964777541606561,0.1772878023534973,-0.4542558379228289,1.0273403684403308,0.32548928637992725,0.21011280922393022,-1.762241279609661,3.5556113750593545,1.5204211718035519,0.00562953852723202,0.33325313937676254,3.035345009109324,0.8779360167750598,-0.19572182621097026,-0.753212617004547,-1.3245678952039108,0.5359608818559349,0.36503661266833826,-0.4975550595395003,0.2732518136818652,-0.2465634631903378,-0.2609954711689139,-1.3169141859594968,-0.2849826337277558,-0.08445000636719484,-0.26568401700010125,1.5199641923384286,0.33272207916496516,1.9726630456712453,0.43217402843291325,0.7352818124795456,0.18357345326928248,-0.24047013004205064,-0.5891924583765771,-0.3689381216483147,-0.6426975686046283,-0.14982953238505398,-0.5014173551701052
0AC2A4,-1.4966719560715407,0.5936764949779287,-0.7559289460184545,-0.4714045207910318,-0.4714045207910318,-1.0954451150103321,-0.4714045207910318,-0.23249527748763854,-0.20313083449424926,-0.22497165354319457,-0.23618515838256413,-0.31473899017839224,-0.11569713380915515,-0.10859306069076735,3.1622776601683795,1.5566087625856033,0.6533217188282379,0.6694576790986404,0.43274631447734707,0.3834824944236852,-0.08391813582967007,-0.03945149215762357,-0.0739509972887452,-0.48733971724044817,0.0,-0.4887291113694511,0.4897799435089026,-0.4045402364330516,-0.12879315868911084,-0.06245122902105491,-0.027885569326658022,-0.25744908844277653,-0.05583630456296903,3.1622776601683795,-2.6635201562296293,-0.08849211017394924,-0.048336824452283184,0.0,-0.0970142500145332,-0.1190982668350827,0.4824506406770078,-0.47877589854912145,-0.03945149215762358,-0.027885569326658022,3.035504194410825,-2.4177974854919224,-0.03945149215762357,-0.22113289104342324,1.834239674308892,-0.17032758234991047,2.6168889270470013,-0.6085515351095734,-0.14604058652446705,0.4066841844069564,0.8742168257287586,-0.009237033083012863,-0.6061852530941343,-0.8635468101352909,0.5820676129357849,-0.3678032703504356,-0.913505498906316,0.5005103738818755,-0.3006958580495616,-0.3202219281712902,1.4481726392943721e-15,0.0,-3.502309970649459e-16,1.2315611040589112e-16,0.0,0.0,0.0,-3.912593988941277e-16,6.742326384237031e-16,0.0,1.1234212222740315e-16,0.0,-2.593949246608517e-16,0.0,2.1113004750354313e-16,0.0,-1.5148329178041533e-16,0.0,0.0,-2.9550444608749387e-16,0.0,0.0,0.0
0AC2A4,-0.9905719015618001,-1.3908471500693695,1.3228756555322954,-0.4714045207910318,-0.4714045207910318,0.9128709291752769,-0.4714045207910318,-0.23249527748763854,-0.20313083449424926,-0.22497165354319457,-0.23618515838256413,-0.31473899017839224,-0.11569713380915515,-0.10859306069076735,-0.31622776601683794,1.5566087625856033,0.6533217188282379,0.6694576790986404,0.43274631447734707,0.3834824944236852,-0.08391813582967007,-0.03945149215762357,-0.0739509972887452,-0.48733971724044817,0.0,-0.4887291113694511,0.4897799435089026,-0.4045402364330516,-0.12879315868911084,-0.06245122902105491,-0.027885569326658022,-0.25744908844277653,-0.05583630456296903,-0.31622776601683794,0.37544300074513404,-0.08849211017394924,-0.048336824452283184,0.0,-0.0970142500145332,-0.1190982668350827,0.4824506406770078,-0.47877589854912145,-0.03945149215762358,-0.027885569326658022,-0.3294345637345082,0.41359956985667096,-0.03945149215762357,-0.22113289104342324,1.3551740573104136,1.4180811183863504,1.7790956560761155,0.08313067004766012,-0.12443584024966102,0.599774538918996,0.455857611190537,-0.007644840306876033,1.3840465633748376,-0.8837127205530108,0.56856447001292,-0.23603679870662875,1.0317680123747481,1.29765915119053,0.11238560892180546,-1.2368124325134275,1.4481726392943721e-15,0.0,-3.502309970649459e-16,1.2315611040589112e-16,0.2863359338884742,-0.29262436398121117,-0.2609954711689139,-3.912593988941277e-16,6.742326384237031e-16,-0.43177542133331515,-0.43066221689052336,-0.3576016836027192,-0.39689571182293126,-0.31084462720541084,-0.4480043593242025,-0.38230390299377587,-0.26625518950300064,-0.6350741880149465,-0.557535625163288,-0.6087011234339137,-0.5362431175259063,-0.6415730205737846,-0.5615143714045745
0AC2A4,-0.9905719015618001,-1.0901617493046274,-0.7559289460184545,2.121320343559643,-0.4714045207910318,0.9128709291752769,-0.4714045207910318,-0.23249527748763854,-0.20313083449424926,-0.22497165354319457,-0.23618515838256413,-0.31473899017839224,-0.11569713380915515,-0.10859306069076735,-0.31622776601683794,1.5566087625856033,0.6533217188282379,0.6694576790986404,0.43274631447734707,0.3834824944236852,-0.08391813582967007,-0.03945149215762357,-0.0739509972887452,-0.48733971724044817,0.0,-0.4887291113694511,0.4897799435089026,-0.4045402364330516,-0.12879315868911084,-0.06245122902105491,-0.027885569326658022,-0.25744908844277653,-0.05583630456296903,-0.31622776601683794,0.37544300074513404,-0.08849211017394924,-0.048336824452283184,0.0,-0.0970142500145332,-0.1190982668350827,0.4824506406770078,-0.47877589854912145,-0.03945149215762358,-0.027885569326658022,-0.3294345637345082,0.41359956985667096,-0.03945149215762357,-0.22113289104342324,0.1434198496083781,-0.09740014545375189,0.4212393005134893,-0.09004736770389568,-0.5741293339034056,1.6880285453111183,0.23843068900170866,-0.09744451288099315,-1.0243466615379884,0.8794515381466611,-0.5994189379733799,-0.17676637837614317,-1.2069691353373633,-1.1993082342266421,0.3567690992189519,0.5114180349405022,1.4481726392943721e-15,0.0,-3.502309970649459e-16,1.2315611040589112e-16,0.2817564918161612,-0.2831802224521472,-0.2609954711689139,-3.912593988941277e-16,6.742326384237031e-16,-0.3569597434179721,-0.39868655989507845,-0.034300651062582725,-0.3634381520466194,0.11465118234592703,-0.2936631659304433,-0.21044405519210058,-0.32858281751148727,-0.7432156798518224,-0.7625265943313073,-0.8540003934667822,-0.7839398135180043,-0.6356516430477025,-0.7034188442932954
0AC2A4,-0.9905719015618001,-0.9899332823830467,-0.7559289460184545,-0.4714045207910318,2.121320343559643,0.9128709291752769,-0.4714045207910318,-0.23249527748763854,-0.20313083449424926,-0.22497165354319457,-0.23618515838256413,-0.31473899017839224,-0.11569713380915515,-0.10859306069076735,-0.31622776601683794,1.5566087625856033,0.6533217188282379,0.6694576790986404,0.43274631447734707,0.3834824944236852,-0.08391813582967007,-0.03945149215762357,-0.0739509972887452,-0.48733971724044817,0.0,-0.4887291113694511,0.4897799435089026,-0.4045402364330516,-0.12879315868911084,-0.06245122902105491,-0.027885569326658022,-0.25744908844277653,-0.05583630456296903,-0.31622776601683794,0.37544300074513404,-0.08849211017394924,-0.048336824452283184,0.0,-0.0970142500145332,-0.1190982668350827,0.4824506406770078,-0.47877589854912145,-0.03945149215762358,-0.027885569326658022,-0.3294345637345082,0.41359956985667096,-0.03945149215762357,-0.22113289104342324,-1.4736975724769854,-1.0005336409403949,-1.2655401007214346,-1.9013297557533737,0.7150015530899888,0.17966163370451663,0.5163840887769222,-0.014968927077105443,-1.0330944660862587,0.5136791188810255,-0.4260535252964989,-0.08624428187140155,-0.5989101835734907,-0.4603435249270306,-2.1475375057946793,1.9275721283820522,-2.1142392055167165,0.7999509471166906,-1.0482243556679194,0.526226821345458,0.27801817175712995,-0.2810262954367467,-0.2533479342442065,0.15148074819809884,-0.7398464178308247,-0.5321280295587714,-0.46053314709639465,-0.15314172201533194,-0.2969903168484133,-0.2228305558481693,-0.3583967073686341,0.09465684513211613,-0.05220181205178798,-0.6720370997744329,-0.5886734938976708,-0.6736458086422685,-0.6061988996633522,-0.6544923897216002,-0.5448382360096694
0AC2A4,-0.9905719015618001,-0.8696591220771498,1.3228756555322954,-0.4714045207910318,-0.4714045207910318,-1.0954451150103321,-0.4714045207910318,-0.23249527748763854,-0.20313083449424926,-0.22497165354319457,-0.23618515838256413,-0.31473899017839224,-0.11569713380915515,-0.10859306069076735,-0.31622776601683794,1.5566087625856033,0.6533217188282379,0.6694576790986404,0.43274631447734707,0.3834824944236852,-0.08391813582967007,-0.03945149215762357,-0.0739509972887452,-0.48733971724044817,0.0,-0.4887291113694511,0.4897799435089026,-0.4045402364330516,-0.12879315868911084,-0.06245122902105491,-0.027885569326658022,-0.25744908844277653,-0.05583630456296903,-0.31622776601683794,0.37544300074513404,-0.08849211017394924,-0.048336824452283184,0.0,-0.0970142500145332,-0.1190982668350827,0.4824506406770078,-0.47877589854912145,-0.03945149215762358,-0.027885569326658022,-0.3294345637345082,0.41359956985667096,-0.03945149215762357,-0.22113289104342324,-0.029997568309623496,-0.09979499592760728,-0.07097659335865344,0.19519858742582638,0.003761859500181545,1.4117235191892876,-0.2652347218435153,-0.5766945384981785,0.4528223304158018,-0.2864225217936692,-0.1131299991889988,-0.053523091143497105,0.2699007154909602,1.3321512869517018,0.20707701716767615,-0.13670907008391803,-1.651456136275067,1.7019947390147494,-1.0986979616799286,0.8471837139150329,0.2734387296848169,-0.2828488490651625,-0.2533479342442065,-1.4637545604130977,0.12166194549175717,-0.2725894317131309,-0.2940168776289765,0.06413543876885747,-0.10166545670178802,0.2481702289587065,-0.11148122498512374,-0.2444683314187329,-0.022402438240374935,-0.6280812047090977,-0.5570166606843817,-0.6199865933225785,-0.5793951896596026,-0.6076596765607686,-0.4992148467217215
0AC2A4,-0.9905719015618001,-0.60906510808104,1.3228756555322954,-0.4714045207910318,-0.4714045207910318,-1.0954451150103321,-0.4714045207910318,4.301162633521313,-0.20313083449424926,-0.22497165354319457,-0.23618515838256413,-0.31473899017839224,-0.11569713380915515,-0.10859306069076735,-0.31622776601683794,1.5566087625856033,0.6533217188282379,0.6694576790986404,0.43274631447734707,0.3834824944236852,-0.08391813582967007,-0.03945149215762357,-0.0739509972887452,-0.48733971724044817,0.0,-0.4887291113694511,0.4897799435089026,-0.4045402364330516,-0.12879315868911084,-0.06245122902105491,-0.027885569326658022,-0.25744908844277653,-0.05583630456296903,-0.31622776601683794,0.37544300074513404,-0.08849211017394924,-0.048336824452283184,0.0,-0.0970142500145332,-0.1190982668350827,0.4824506406770078,-0.47877589854912145,-0.03945149215762358,-0.027885569326658022,-0.3294345637345082,0.41359956985667096,-0.03945149215762357,-0.22113289104342324,1.0625321645737857,0.2655264315457162,1.9983987437249682,-0.4690674401321096,-0.24605196166413218,0.9851473385099702,0.2815055963915615,0.2467875653197891,0.37240793271787126,-0.43958133509280684,0.9124056887037743,0.10900521849001628,0.41800644436173756,1.5636732122322485,-1.232814480019206,2.072630924210318,-1.3506711401521838,0.6758849447149923,-0.7882852847060721,0.06295890609369498,0.2570835794265555,-0.26346350592655754,-0.23040532347008433,-0.9288390427105134,-0.3381816557403443,-0.32580584657706296,-0.390996212010098,-0.04845083897585232,-0.30998082190122717,0.017406564406601138,-0.2720599629122927,-0.161642812283099,-0.3111179830432599,-0.5931162881798538,-0.6081346618566599,-0.6189219263519499,-0.6132324973239106,-0.5570588140651577,-0.5712683373902738
0AC2A4,-0.9905719015618001,-0.06783138670450406,-0.7559289460184545,-0.4714045207910318,-0.4714045207910318,-1.0954451150103321,2.121320343559643,-0.23249527748763854,-0.20313083449424926,-0.22497165354319457,-0.23618515838256413,-0.31473899017839224,-0.11569713380915515,-0.10859306069076735,-0.31622776601683794,1.5566087625856033,0.6533217188282379,0.6694576790986404,0.43274631447734707,0.3834824944236852,-0.08391813582967007,-0.03945149215762357,-0.0739509972887452,-0.48733971724044817,0.0,-0.4887291113694511,0.4897799435089026,-0.4045402364330516,-0.12879315868911084,-0.06245122902105491,-0.027885569326658022,-0.25744908844277653,-0.05583630456296903,-0.31622776601683794,0.37544300074513404,-0.08849211017394924,-0.048336824452283184,0.0,-0.0970142500145332,-0.1190982668350827,0.4824506406770078,-0.47877589854912145,-0.03945149215762358,-0.027885569326658022,-0.3294345637345082,0.41359956985667096,-0.03945149215762357,-0.22113289104342324,-0.8862460692797555,-0.40029463426243655,-1.129342126890545,-0.7035027333783391,-0.4688240805374635,-0.04251346039929456,1.7360927131404633,-0.10317640687508572,-0.30073153951238557,-1.0003686833491872,-0.7729601442115024,-0.04891861220873211,-0.4225042606173775,-0.09696355571808676,-0.6040761861535197,-0.538453786182062,-1.3685587161263038,1.546212615698332,-0.6610917975558088,0.1294720319805449,0.2015695265499435,-0.20017118901247977,-0.17687256499713255,0.0046425763391015305,-0.8943422077851917,-0.309360295084836,-0.43260504161936053,-0.27946803729901354,-0.4290448754068734,-0.25392292328255817,-0.451655604904735,-0.2774991981204999,-0.32367083281729836,-0.5054542474529636,-0.6244820429422108,-0.4573054802105026,-0.6039177328545224,-0.532027536341265,-0.6093402691409062
0AC2A4,-0.9905719015618001,0.032397080217076664,-0.7559289460184545,2.121320343559643,-0.4714045207910318,0.9128709291752769,-0.4714045207910318,-0.23249527748763854,-0.20313083449424926,-0.22497165354319457,-0.23618515838256413,-0.31473899017839224,-0.11569713380915515,-0.10859306069076735,-0.31622776601683794,1.5566087625856033,0.6533217188282379,0.6694576790986404,0.43274631447734707,0.3834824944236852,-0.08391813582967007,-0.03945149215762357,-0.0739509972887452,-0.48733971724044817,0.0,-0.4887291113694511,0.4897799435089026,-0.4045402364330516,-0.12879315868911084,-0.06245122902105491,-0.027885569326658022,-0.25744908844277653,-0.05583630456296903,-0.31622776601683794,0.37544300074513404,-0.08849211017394924,-0.048336824452283184,0.0,-0.0970142500145332,-0.1190982668350827,0.4824506406770078,-0.47877589854912145,-0.03945149215762358,-0.027885569326658022,-0.3294345637345082,0.41359956985667096,-0.03945149215762357,-0.22113289104342324,-0.3269748964942008,0.24684425855736164,-0.8252053206791227,0.6072750171025671,1.0067371666948202,0.29034522603986984,-0.20805753550696973,-0.007644840306876033,-0.20211843814674524,0.3360732416686161,0.8963974875332172,-0.06341782247139635,-0.692366989910184,-0.19483701935926778,0.5396761754921142,-0.20667852007345913,-1.3346881889997835,0.9865163642621011,-0.2573029494597353,-0.2475040876951996,0.1695134320437518,-0.16438286321813217,-0.19981517577125474,0.2983211226516999,-0.9550716849685121,-0.40403802990804477,-0.4097363755403398,-0.2903370222179018,-0.5126887748476532,-0.20445043239086133,-0.47546476879445737,-0.3723698077451242,-0.5213509279545477,-0.6208384719994686,-0.7492930001191946,-0.5822973825623202,-0.7540945477691483,-0.6262312697107536,-0.699013827396528
0AC2A4,-0.9905719015618001,0.17271693390728968,-0.7559289460184545,-0.4714045207910318,2.121320343559643,0.9128709291752769,-0.4714045207910318,-0.23249527748763854,-0.20313083449424926,-0.22497165354319457,-0.23618515838256413,-0.31473899017839224,-0.11569713380915515,-0.10859306069076735,-0.31622776601683794,1.5566087625856033,0.6533217188282379,0.6694576790986404,0.43274631447734707,0.3834824944236852,-0.08391813582967007,-0.03945149215762357,-0.0739509972887452,-0.48733971724044817,0.0,-0.4887291113694511,0.4897799435089026,-0.4045402364330516,-0.12879315868911084,-0.06245122902105491,-0.027885569326658022,-0.25744908844277653,-0.05583630456296903,-0.31622776601683794,0.37544300074513404,-0.08849211017394924,-0.048336824452283184,0.0,-0.0970142500145332,-0.1190982668350827,0.4824506406770078,-0.47877589854912145,-0.03945149215762358,-0.027885569326658022,-0.3294345637345082,0.41359956985667096,-0.03945149215762357,-0.22113289104342324,-1.0921792530573822,-0.5308329918373489,-1.1993936905939178,2.586291443416084,0.9612384295068181,0.12674356583615431,-2.1756150489418147,-0.030253977728018997,-1.021812250874471,1.4623229286254122,-2.123164565522225,-0.23319573723624185,-1.3398619740115403,-1.6958318141594724,2.4466069106676254,-0.47904793135430845,-1.2908512462732609,0.022905984706056034,-0.9220403406378964,0.033795629249711,0.14558818366595264,-0.12362393661901402,-0.18452010192183996,-0.14219779811449954,-1.118433978591644,-0.42957496021815794,-0.43713829931998055,-0.27864773655041825,-0.4595118153149116,-0.22776970796665294,-0.5173019577380589,-0.39596328396067204,-0.41503374812921323,-0.6160932333276427,-0.6657397190152679,-0.606571789492656,-0.6491608745629793,-0.614926821706415,-0.658739387197512
0AC2A4,-0.9905719015618001,0.23285401406023812,-0.7559289460184545,-0.4714045207910318,-0.4714045207910318,-1.0954451150103321,2.121320343559643,-0.23249527748763854,-0.20313083449424926,-0.22497165354319457,-0.23618515838256413,-0.31473899017839224,-0.11569713380915515,-0.10859306069076735,-0.31622776601683794,1.5566087625856033,0.6533217188282379,0.6694576790986404,0.43274631447734707,0.3834824944236852,-0.08391813582967007,-0.03945149215762357,-0.0739509972887452,-0.48733971724044817,0.0,-0.4887291113694511,0.4897799435089026,-0.4045402364330516,-0.12879315868911084,-0.06245122902105491,-0.027885569326658022,-0.25744908844277653,-0.05583630456296903,-0.31622776601683794,0.37544300074513404,-0.08849211017394924,-0.048336824452283184,0.0,-0.0970142500145332,-0.1190982668350827,0.4824506406770078,-0.47877589854912145,-0.03945149215762358,-0.027885569326658022,-0.3294345637345082,0.41359956985667096,-0.03945149215762357,-0.22113289104342324,0.03936939885757715,-0.15784745802461758,-0.009309624097559878,0.48137639832368195,-1.3510417330570272,0.4248621466518137,-0.49644913996683365,-0.05286311514916196,0.9123518613028777,0.017284111701696823,-0.26210405524361746,0.0005550444307641264,0.9087652278291606,1.7265372160465307,0.4275384483063771,0.09157085522048251,-1.1847884068833947,2.1525502214209156,-1.2667750696999194,1.8289068028053297,0.08184982665947221,-0.011951105205170048,-0.07745458497593642,-0.393923525007929,-1.0421577552493935,0.2731249248458416,-0.2692863378514868,0.5078156061653594,0.12599548077054645,0.736498531033705,0.2173590801115846,-0.12277566462274896,-0.08309273801746526,-0.6335756915922647,-0.6595121452683913,-0.6174313925930696,-0.6620874864796813,-0.6291919584737946,-0.6212967435749891
0AC2A4,-0.9905719015618001,0.47340233467203185,1.3228756555322954,-0.4714045207910318,-0.4714045207910318,0.9128709291752769,-0.4714045207910318,-0.23249527748763854,-0.20313083449424926,-0.22497165354319457,-0.23618515838256413,3.1772358405077354,-0.11569713380915515,-0.10859306069076735,-0.31622776601683794,1.5566087625856033,0.6533217188282379,0.6694576790986404,0.43274631447734707,0.3834824944236852,-0.08391813582967007,-0.03945149215762357,-0.0739509972887452,-0.48733971724044817,0.0,-0.4887291113694511,0.4897799435089026,-0.4045402364330516,-0.12879315868911084,-0.06245122902105491,-0.027885569326658022,-0.25744908844277653,-0.05583630456296903,-0.31622776601683794,0.37544300074513404,-0.08849211017394924,-0.048336824452283184,0.0,-0.0970142500145332,-0.1190982668350827,0.4824506406770078,-0.47877589854912145,-0.03945149215762358,-0.027885569326658022,-0.3294345637345082,0.41359956985667096,-0.03945149215762357,-0.22113289104342324,1.4917402739208394,2.4707070871640604,-0.38364156583499687,-0.19848595209038392,1.1508165011234939,0.45354293152703296,0.5358754528925291,0.06655134306110017,2.4469456935810134,0.8805090632861075,0.15933903363779442,-0.03148037283877106,2.4320799608082595,1.9604616907730663,0.00046955203452166686,-0.9424268119713444,-1.1767683976020005,1.2822225504375764,-1.0986979616799286,0.7454062072419428,0.06203673034660721,0.05780299275510939,-0.12333980652418079,-0.8763952651932974,-0.9715901027623756,-0.3940201411469346,-0.41520057009019434,-0.10361606431888856,-0.18792614852730724,-0.20137358353016654,-0.22809288071338044,0.19586044047775586,-0.10153996942453046,-0.5027070040113801,-0.5692123259386815,-0.4658228159755327,-0.5947930656192034,-0.5223380094804032,-0.5042491517465986
0AC2A4,-0.9905719015618001,0.5535851082092964,-0.7559289460184545,-0.4714045207910318,-0.4714045207910318,-1.0954451150103321,-0.4714045207910318,-0.23249527748763854,-0.20313083449424926,-0.22497165354319457,-0.23618515838256413,-0.31473899017839224,-0.11569713380915515,-0.10859306069076735,3.1622776601683795,1.5566087625856033,0.6533217188282379,0.6694576790986404,0.43274631447734707,0.3834824944236852,-0.08391813582967007,-0.03945149215762357,-0.0739509972887452,-0.48733971724044817,0.0,-0.4887291113694511,0.4897799435089026,-0.4045402364330516,-0.12879315868911084,-0.06245122902105491,-0.027885569326658022,-0.25744908844277653,-0.05583630456296903,-0.31622776601683794,0.37544300074513404,-0.08849211017394924,-0.048336824452283184,0.0,-0.0970142500145332,-0.1190982668350827,0.4824506406770078,-0.47877589854912145,-0.03945149215762358,-0.027885569326658022,-0.3294345637345082,0.41359956985667096,-0.03945149215762357,-0.22113289104342324,1.370348081378238,-0.5732238921053368,2.0366462772767355,-0.6052655174008919,-0.11399116158700642,-0.38708683361847807,1.0035045045007587,-0.021019259626425393,-1.0322115101131621,-0.8510753067666469,0.543162300413519,-0.2170310771461094,-1.30984488440149,-1.6000381559861696,-0.2888903249227768,-0.30215408917826897,1.4481726392943721e-15,0.0,-3.502309970649459e-16,1.2315611040589112e-16,0.0,0.0,0.0,-3.912593988941277e-16,6.742326384237031e-16,0.0,1.1234212222740315e-16,0.0,-2.593949246608517e-16,0.0,2.1113004750354313e-16,0.0,-1.5148329178041533e-16,0.0,0.0,-2.9550444608749387e-16,0.0,0.0,0.0
0AC2A4,-0.4844718470520595,-1.4108928434536858,1.3228756555322954,-0.4714045207910318,-0.4714045207910318,0.9128709291752769,-0.4714045207910318,-0.23249527748763854,-0.20313083449424926,-0.22497165354319457,-0.23618515838256413,-0.31473899017839224,-0.11569713380915515,-0.10859306069076735,-0.31622776601683794,-0.6328507756085731,0.6533217188282379,0.6694576790986404,0.43274631447734707,0.3834824944236852,-0.08391813582967007,-0.03945149215762357,-0.0739509972887452,-0.48733971724044817,0.0,-0.4887291113694511,0.4897799435089026,-0.4045402364330516,-0.12879315868911084,-0.06245122902105491,-0.027885569326658022,-0.25744908844277653,-0.05583630456296903,-0.31622776601683794,0.37544300074513404,-0.08849211017394924,-0.048336824452283184,0.0,-0.0970142500145332,-0.1190982668350827,0.4824506406770078,-0.47877589854912145,-0.03945149215762358,-0.027885569326658022,-0.3294345637345082,0.41359956985667096,-0.03945149215762357,-0.22113289104342324,0.8999533352756595,1.255503228891983,1.1886594068982843,0.034625125064287506,-0.43977928918788983,-0.5890641918946701,0.04875503716869299,-0.011466102969604422,0.40386732701856637,-0.6718065624384182,0.28331744270338316,-0.06890401013835039,0.5458208729668297,0.7724365997516587,0.07718104846810431,-1.0262252376316385,1.4481726392943721e-15,0.0,-3.502309970649459e-16,1.2315611040589112e-16,0.2351209490797481,-0.26893116681180507,-0.23040532347008433,-3.912593988941277e-16,6.742326384237031e-16,-0.20495420585777438,-0.3258711080788691,-0.03768439165053859,-0.3383917106498272,0.10404415074721618,-0.2737334504700367,-0.29947838385814196,-0.39494918849075156,-0.538421168751965,-0.5090124463855418,-0.4888196225411141,-0.4558319875146571,-0.5691707226412348,-0.5429503716253405
0AC2A4,-0.4844718470520595,-1.0701160559203113,-0.7559289460184545,2.121320343559643,-0.4714045207910318,0.9128709291752769,-0.4714045207910318,-0.23249527748763854,-0.20313083449424926,-0.22497165354319457,-0.23618515838256413,-0.31473899017839224,-0.11569713380915515,-0.10859306069076735,-0.31622776601683794,-0.6328507756085731,0.6533217188282379,0.6694576790986404,0.43274631447734707,0.3834824944236852,-0.08391813582967007,-0.03945149215762357,-0.0739509972887452,-0.48733971724044817,0.0,-0.4887291113694511,0.4897799435089026,-0.4045402364330516,-0.12879315868911084,-0.06245122902105491,-0.027885569326658022,-0.25744908844277653,-0.05583630456296903,-0.31622776601683794,0.37544300074513404,-0.08849211017394924,-0.048336824452283184,0.0,-0.0970142500145332,-0.1190982668350827,0.4824506406770078,-0.47877589854912145,-0.03945149215762358,-0.027885569326658022,-0.3294345637345082,0.41359956985667096,-0.03945149215762357,-0.22113289104342324,-0.8190468198365298,-0.4128800267404265,-0.8528227964824937,-0.12521266169083012,2.9687628995849886,0.6942999425922538,-0.23175440066560862,-0.09839982854667524,-1.0292029193900187,0.521665257003052,0.4441465770442275,-0.2914864811976285,-1.3398619740115403,-1.6958318141594724,0.14775215491821128,0.26427233722541643,1.4481726392943721e-15,0.0,-3.502309970649459e-16,1.2315611040589112e-16,0.251102267332106,-0.29345279744867286,-0.2609954711689139,-3.912593988941277e-16,6.742326384237031e-16,0.6348691508033864,-0.11762458245663607,1.3904592116539405,0.4222537614714088,1.484820561837409,0.43689022064110117,1.2466393654038943,0.3442499303769751,-0.4085514787862018,-0.4480341201140423,-0.2411780851728622,-0.2611724198278509,-0.536603146247783,-0.6294774892404144
0AC2A4,-0.4844718470520595,-1.009978975767363,-0.7559289460184545,-0.4714045207910318,2.121320343559643,0.9128709291752769,-0.4714045207910318,-0.23249527748763854,-0.20313083449424926,-0.22497165354319457,-0.23618515838256413,-0.31473899017839224,-0.11569713380915515,-0.10859306069076735,-0.31622776601683794,-0.6328507756085731,0.6533217188282379,0.6694576790986404,0.43274631447734707,0.3834824944236852,-0.08391813582967007,-0.03945149215762357,-0.0739509972887452,-0.48733971724044817,0.0,-0.4887291113694511,0.4897799435089026,-0.4045402364330516,-0.12879315868911084,-0.06245122902105491,-0.027885569326658022,-0.25744908844277653,-0.05583630456296903,-0.31622776601683794,0.37544300074513404,-0.08849211017394924,-0.048336824452283184,0.0,-0.0970142500145332,-0.1190982668350827,0.4824506406770078,-0.47877589854912145,-0.03945149215762358,-0.027885569326658022,-0.3294345637345082,0.41359956985667096,-0.03945149215762357,-0.22113289104342324,-1.4238400648255598,-1.0845493232539647,-1.1806317248110911,-1.4868010740552289,-0.1729392110255501,1.22065293826001,0.5021433053048604,-0.030253977728018997,-1.0297425035957999,0.5177414740718645,-0.46056399878772675,-0.08418696149629379,-1.0356304524450077,-0.8577765899045772,-1.8808617406320438,2.002677497589166,-1.776647767815003,1.546212615698332,-0.6610917975558088,0.32156251637341293,0.2385788951343517,-0.2719135272946674,-0.2533479342442065,-0.14219779811449954,-0.3165619618630822,0.6795732555639473,-0.17388554856254546,0.6220424854072597,0.29823649380893424,0.7636233828319351,0.040425804688280505,0.21485939764080236,0.5832998521608382,-0.5581513716506098,-0.5370365282464862,-0.5216113652364802,-0.4784535583688856,-0.570247336736886,-0.5693804730059449
0AC2A4,-0.4844718470520595,-0.8696591220771498,1.3228756555322954,-0.4714045207910318,-0.4714045207910318,-1.0954451150103321,-0.4714045207910318,-0.23249527748763854,-0.20313083449424926,-0.22497165354319457,-0.23618515838256413,-0.31473899017839224,-0.11569713380915515,-0.10859306069076735,-0.31622776601683794,-0.6328507756085731,0.6533217188282379,0.6694576790986404,0.43274631447734707,0.3834824944236852,-0.08391813582967007,-0.03945149215762357,-0.0739509972887452,-0.48733971724044817,0.0,-0.4887291113694511,0.4897799435089026,-0.4045402364330516,-0.12879315868911084,-0.06245122902105491,-0.027885569326658022,-0.25744908844277653,-0.05583630456296903,-0.31622776601683794,0.37544300074513404,-0.08849211017394924,-0.048336824452283184,0.0,-0.0970142500145332,-0.1190982668350827,0.4824506406770078,-0.47877589854912145,-0.03945149215762358,-0.027885569326658022,-0.3294345637345082,0.41359956985667096,-0.03945149215762357,-0.22113289104342324,0.30599867890650445,0.4774546158474802,0.11699912258976486,0.23463079993000388,0.041391318243717924,0.15825203372724025,-0.01918772818519389,0.6177684821596701,1.479324053286558,-0.16159079567804832,-0.8126675148569329,0.12085930255611338,1.3262973987258442,1.4875732473601166,0.13460094437318648,-0.26701752128557216,-1.5706160732160503,1.1422984875785185,-0.6444355075718458,0.014993136191303607,0.23063496500891043,-0.26743998657037393,-0.21511024962066955,-1.1113394238001384,-1.0851542250951842,-0.24328855475867003,-0.3254258774118439,0.23896203581323838,-0.027273787478480065,0.31901872246154567,-0.0055951031496812124,0.10136235942495604,-0.011705227128585531,-0.5499096413258595,-0.6055398394621281,-0.4487881444454724,-0.534722339653353,-0.6230014274237997,-0.6537050821726349
0AC2A4,-0.4844718470520595,-0.6692021882339884,1.3228756555322954,-0.4714045207910318,-0.4714045207910318,-1.0954451150103321,-0.4714045207910318,4.301162633521313,-0.20313083449424926,-0.22497165354319457,-0.23618515838256413,-0.31473899017839224,-0.11569713380915515,-0.10859306069076735,-0.31622776601683794,-0.6328507756085731,0.6533217188282379,0.6694576790986404,0.43274631447734707,0.3834824944236852,-0.08391813582967007,-0.03945149215762357,-0.0739509972887452,-0.48733971724044817,0.0,-0.4887291113694511,0.4897799435089026,-0.4045402364330516,-0.12879315868911084,-0.06245122902105491,-0.027885569326658022,-0.25744908844277653,-0.05583630456296903,-0.31622776601683794,0.37544300074513404,-0.08849211017394924,-0.048336824452283184,0.0,-0.0970142500145332,-0.1190982668350827,0.4824506406770078,-0.47877589854912145,-0.03945149215762358,-0.027885569326658022,-0.3294345637345082,0.41359956985667096,-0.03945149215762357,-0.22113289104342324,1.2728007837993625,0.3447845781804545,2.0356355316453376,-0.48422235762438676,-0.25449355126819545,0.6236078671955866,-0.1024667218936088,0.5136390746003215,0.5210879079653868,-0.5383760629475743,1.397584930632818,-0.056951958435343376,0.28466680547447,1.2298234155009036,-0.9136683400140332,1.5568607341962595,-1.5297425595861338,1.0760677644918977,-0.7887900207661921,0.22685119735708129,0.23642936110040874,-0.2762213813254685,-0.23040532347008433,-0.8344424457741283,-0.7670532236089525,0.021693289003411678,-0.2448391266802859,0.28582171607674683,0.08982767173861168,0.36007036383976243,0.05153167666240011,0.1925076833313358,0.20966154975619725,-0.47098882973128026,-0.4898107606660057,-0.4366509409803044,-0.4653368492181144,-0.47308291460435636,-0.4856851519673645
0AC2A4,-0.4844718470520595,-0.1279684668574525,-0.7559289460184545,-0.4714045207910318,-0.4714045207910318,-1.0954451150103321,2.121320343559643,-0.23249527748763854,-0.20313083449424926,-0.22497165354319457,-0.23618515838256413,-0.31473899017839224,-0.11569713380915515,-0.10859306069076735,-0.31622776601683794,-0.6328507756085731,0.6533217188282379,0.6694576790986404,0.43274631447734707,0.3834824944236852,-0.08391813582967007,-0.03945149215762357,-0.0739509972887452,-0.48733971724044817,0.0,-0.4887291113694511,0.4897799435089026,-0.4045402364330516,-0.12879315868911084,-0.06245122902105491,-0.027885569326658022,-0.25744908844277653,-0.05583630456296903,-0.31622776601683794,0.37544300074513404,-0.08849211017394924,-0.048336824452283184,0.0,-0.0970142500145332,-0.1190982668350827,0.4824506406770078,-0.47877589854912145,-0.03945149215762358,-0.027885569326658022,-0.3294345637345082,0.41359956985667096,-0.03945149215762357,-0.22113289104342324,0.46857750820463084,0.6202947267111715,-0.7056789068933952,-1.2837546066829715,-0.698463933325965,-0.10108689429939023,1.7360927131404633,2.0211271950466707,-0.42519562964590474,-1.4929128403655663,-3.540423243349014,-0.08908534334178846,-0.6518290694001223,-0.1499197121934391,-0.7067248552840285,-0.4534634139918082,-1.351877708257543,0.1161886932787613,-0.947277143643901,0.04350193097602753,0.25026114531882365,-0.29345279744867286,-0.2609954711689139,-1.243495100029998,-0.743611645416191,-0.4203677676573689,-0.37286318120761786,-0.14299050025146462,-0.09400199328933669,-0.04825986785717317,-0.04811690063963271,-0.2498079076148832,-0.03473697758356049,-0.6478114076077426,-0.6327854746047128,-0.6425575330999086,-0.6086701637062512,-0.6378048712390051,-0.6225553198312084
0AC2A4,-0.4844718470520595,-0.06783138670450406,-0.7559289460184545,2.121320343559643,-0.4714045207910318,0.9128709291752769,-0.4714045207910318,-0.23249527748763854,-0.20313083449424926,-0.22497165354319457,-0.23618515838256413,-0.31473899017839224,-0.11569713380915515,-0.10859306069076735,-0.31622776601683794,-0.6328507756085731,0.6533217188282379,0.6694576790986404,0.43274631447734707,0.3834824944236852,-0.08391813582967007,-0.03945149215762357,-0.0739509972887452,-0.48733971724044817,0.0,-0.4887291113694511,0.4897799435089026,-0.4045402364330516,-0.12879315868911084,-0.06245122902105491,-0.027885569326658022,-0.25744908844277653,-0.05583630456296903,-0.31622776601683794,0.37544300074513404,-0.08849211017394924,-0.048336824452283184,0.0,-0.0970142500145332,-0.1190982668350827,0.4824506406770078,-0.47877589854912145,-0.03945149215762358,-0.027885569326658022,-0.3294345637345082,0.41359956985667096,-0.03945149215762357,-0.22113289104342324,0.017692221617827044,0.5165237210748086,-0.49639138959203266,0.8643691190265704,1.1842967039599481,0.30246386753644133,-0.32290296967909765,-0.014013611411423346,-0.3557200753924466,0.7873739182465843,0.8390228639830132,0.06815271389859066,-0.8163652190481723,-0.16738575083005516,0.7344724551104006,-0.08389534021486839,-1.3584007170771366,0.2794334332809955,-1.2248819767099517,0.5769325415637352,0.24231721519338292,-0.2773811881799149,-0.2457003973194991,-1.353624830221548,-0.6487522020558448,0.6696132736742887,-0.24083205067705923,0.15447105870791888,-0.10699249834215054,0.15246403544972795,-0.16069697270605143,0.1761164261710604,0.04942169351021046,-0.48297680111273533,-0.6203303271109597,-0.4679521499167902,-0.6233076507295754,-0.48088836679782826,-0.5819662355681374
0AC2A4,-0.4844718470520595,0.07248846698570895,-0.7559289460184545,-0.4714045207910318,2.121320343559643,0.9128709291752769,-0.4714045207910318,-0.23249527748763854,-0.20313083449424926,-0.22497165354319457,-0.23618515838256413,-0.31473899017839224,-0.11569713380915515,-0.10859306069076735,-0.31622776601683794,-0.6328507756085731,0.6533217188282379,0.6694576790986404,0.43274631447734707,0.3834824944236852,-0.08391813582967007,-0.03945149215762357,-0.0739509972887452,-0.48733971724044817,0.0,-0.4887291113694511,0.4897799435089026,-0.4045402364330516,-0.12879315868911084,-0.06245122902105491,-0.027885569326658022,-0.25744908844277653,-0.05583630456296903,-0.31622776601683794,0.37544300074513404,-0.08849211017394924,-0.048336824452283184,0.0,-0.0970142500145332,-0.1190982668350827,0.4824506406770078,-0.47877589854912145,-0.03945149215762358,-0.027885569326658022,-0.3294345637345082,0.41359956985667096,-0.03945149215762357,-0.22113289104342324,-1.037986309958007,-0.4148421081420834,-1.2542898126992255,3.4109347531738465,0.659058137239332,0.020907430099429726,-2.1598381243702023,-0.041080888605749426,-1.021812250874471,1.5600893044480282,-3.792950694072471,-0.2672884748808848,-1.3398619740115403,-1.6958318141594724,3.0310526824577186,-0.7479539699054276,-1.335329178305756,-0.07037672386664857,-1.3005923857279655,0.608131368541181,0.23325178905023222,-0.26909685350529744,-0.20746271269596211,-1.4637545604130977,-0.6012617508984881,2.977839076602685,-0.024449946502820584,0.4121480313604284,-0.3640923501428043,0.6543142785704115,-0.27700435796926376,0.053927054612643896,-0.41186824688184687,-0.30390647860225023,-0.5136831266956992,-0.1651608634699681,-0.37351988516271656,-0.4173681351544017,-0.633253218009072
0AC2A4,-0.4844718470520595,0.11257985375434124,-0.7559289460184545,-0.4714045207910318,-0.4714045207910318,-1.0954451150103321,2.121320343559643,-0.23249527748763854,-0.20313083449424926,-0.22497165354319457,-0.23618515838256413,-0.31473899017839224,-0.11569713380915515,-0.10859306069076735,-0.31622776601683794,-0.6328507756085731,0.6533217188282379,0.6694576790986404,0.43274631447734707,0.3834824944236852,-0.08391813582967007,-0.03945149215762357,-0.0739509972887452,-0.48733971724044817,0.0,-0.4887291113694511,0.4897799435089026,-0.4045402364330516,-0.12879315868911084,-0.06245122902105491,-0.027885569326658022,-0.25744908844277653,-0.05583630456296903,-0.31622776601683794,0.37544300074513404,-0.08849211017394924,-0.048336824452283184,0.0,-0.0970142500145332,-0.1190982668350827,0.4824506406770078,-0.47877589854912145,-0.03945149215762358,-0.027885569326658022,-0.3294345637345082,0.41359956985667096,-0.03945149215762357,-0.22113289104342324,0.5661248057835064,0.20490952028439424,-0.2556788717508391,0.3778423179800019,-0.8780265596496841,1.5038251945632313,-0.5969530601029946,0.5553545253351064,1.3172362280772076,0.14849016176129132,-0.28586914730395674,-0.21115301893151578,0.945656470129438,1.6032372966550084,0.3260600838164693,-0.05796493039214548,-1.2729972993088348,0.974389612147649,-1.4116343189543858,1.655191734194911,0.2321302930325228,-0.27009097366625157,-0.20746271269596211,-1.3169141859594968,-0.7541785744460885,0.2915972168388713,-0.25766986499364797,1.2555197385100072,0.6697275555710566,1.5392322048475897,0.5878844389193724,0.620543012357618,0.8091419928781043,-0.372837314045617,-0.38030925561676,-0.2019983406537236,-0.24425376599569693,-0.5113027149999775,-0.5162056261806813
0AC2A4,-0.4844718470520595,0.3330824809818188,1.3228756555322954,-0.4714045207910318,-0.4714045207910318,0.9128709291752769,-0.4714045207910318,-0.23249527748763854,-0.20313083449424926,-0.22497165354319457,-0.23618515838256413,3.1772358405077354,-0.11569713380915515,-0.10859306069076735,-0.31622776601683794,-0.6328507756085731,0.6533217188282379,0.6694576790986404,0.43274631447734707,0.3834824944236852,-0.08391813582967007,-0.03945149215762357,-0.0739509972887452,-0.48733971724044817,0.0,-0.4887291113694511,0.4897799435089026,-0.4045402364330516,-0.12879315868911084,-0.06245122902105491,-0.027885569326658022,-0.25744908844277653,-0.05583630456296903,-0.31622776601683794,0.37544300074513404,-0.08849211017394924,-0.048336824452283184,0.0,-0.0970142500145332,-0.1190982668350827,0.4824506406770078,-0.47877589854912145,-0.03945149215762358,-0.027885569326658022,-0.3294345637345082,0.41359956985667096,-0.03945149215762357,-0.22113289104342324,1.5372623461243151,2.7295000682234325,-0.6804102661084436,-0.10770358225800501,0.32425610887478795,3.031177977847795,1.1712838500049363,2.3733202371281372,2.3862179438758258,0.7099047318245159,0.260771918474157,-0.20987943965168718,2.150514351228162,2.3955917933055892,0.045943646340118854,-1.1454022497582883,-1.079083257869356,0.2561127561378192,-1.3005923857279655,0.8657643486482673,0.23605552909450578,-0.2642919393940193,-0.19216763884654733,-0.8029761792637987,-1.1666531834752,-0.14415199083369543,-0.313040369765507,0.597023312575102,0.35692740872380546,0.49172710719475293,-0.03237090407358618,0.6982773076783181,0.8357758654421511,-0.461997851195189,-0.43012984559177225,-0.345302514900356,-0.29177807451298354,-0.5473692872042959,-0.5514457613548205
0AC2A4,-0.4844718470520595,0.39321956113476725,-0.7559289460184545,-0.4714045207910318,-0.4714045207910318,-1.0954451150103321,-0.4714045207910318,-0.23249527748763854,-0.20313083449424926,-0.22497165354319457,-0.23618515838256413,-0.31473899017839224,-0.11569713380915515,-0.10859306069076735,3.1622776601683795,-0.6328507756085731,0.6533217188282379,0.6694576790986404,0.43274631447734707,0.3834824944236852,-0.08391813582967007,-0.03945149215762357,-0.0739509972887452,-0.48733971724044817,0.0,-0.4887291113694511,0.4897799435089026,-0.4045402364330516,-0.12879315868911084,-0.06245122902105491,-0.027885569326658022,-0.25744908844277653,-0.05583630456296903,-0.31622776601683794,0.37544300074513404,-0.08849211017394924,-0.048336824452283184,0.0,-0.0970142500145332,-0.1190982668350827,0.4824506406770078,-0.47877589854912145,-0.03945149215762358,-0.027885569326658022,-0.3294345637345082,0.41359956985667096,-0.03945149215762357,-0.22113289104342324,1.4071992826858137,-0.3630852663994205,2.2748434167852456,-0.6781464474770211,-0.11341885042740893,0.8756756103242742,0.9454459257300447,-0.03917025727438523,-1.0331108171227974,-0.9381497387656184,0.5929228653424495,0.015642060514887732,-1.208954768049069,-1.0970524843351983,-0.27890039834718844,-0.29448976330384896,1.4481726392943721e-15,0.0,-3.502309970649459e-16,1.2315611040589112e-16,0.0,0.0,0.0,-3.912593988941277e-16,6.742326384237031e-16,0.0,1.1234212222740315e-16,0.0,-2.593949246608517e-16,0.0,2.1113004750354313e-16,0.0,-1.5148329178041533e-16,0.0,0.0,-2.9550444608749387e-16,0.0,0.0,0.0
0AC2A4,0.021628207457681146,-1.4108928434536858,1.3228756555322954,-0.4714045207910318,-0.4714045207910318,0.9128709291752769,-0.4714045207910318,-0.23249527748763854,-0.20313083449424926,-0.22497165354319457,-0.23618515838256413,-0.31473899017839224,-0.11569713380915515,-0.10859306069076735,-0.31622776601683794,-0.6328507756085731,-1.5306394555404426,0.6694576790986404,0.43274631447734707,0.3834824944236852,-0.08391813582967007,-0.03945149215762357,-0.0739509972887452,-0.48733971724044817,0.0,-0.4887291113694511,0.4897799435089026,-0.4045402364330516,-0.12879315868911084,-0.06245122902105491,-0.027885569326658022,-0.25744908844277653,-0.05583630456296903,-0.31622776601683794,0.37544300074513404,-0.08849211017394924,-0.048336824452283184,0.0,-0.0970142500145332,-0.1190982668350827,0.4824506406770078,-0.47877589854912145,-0.03945149215762358,-0.027885569326658022,-0.3294345637345082,0.41359956985667096,-0.03945149215762357,-0.22113289104342324,0.7373745059775331,0.19957593388108244,1.8219834309356653,0.03614552131755803,-0.2065624916519039,0.357805663704118,0.9204395632406416,-0.031209293393701095,0.27464508525224973,-0.389491109867165,0.2671224608740072,-0.07683938872805177,0.054872856467979916,0.3161613575359611,-0.07569875734160302,-0.7485809031487629,-2.3703373621226445,0.3960368189968771,-1.0229875526619148,0.32526200394567195,0.24689665726569593,-0.29212730390073405,-0.2533479342442065,0.07806166226860019,-0.9412253641707153,-0.2462997120741482,-0.3443279430028221,-0.05767922239754982,-0.30203698787612515,-0.07789478056807518,-0.30712713400865693,-0.00021376449250798505,-0.24431499120228992,-0.40055949786523176,-0.5904898695738431,-0.3597819857009073,-0.5446073958249485,-0.4208671309652684,-0.6052498963081937
