subject,lap,start_time,straight,roundabout_entry,roundabout_exit,zebra_crossing,left_turn,u_turn,bypass_dummy,car,pedestrian,traffic_light,narrow_road,dummy,bend,habituation,traffic,hurry,frustration,surprise,risk_outcome,risk_source_env,risk_source_other_usr,risk_source_driver,risk_source_crash,risk_evaluation,violation_no,violation_roadside_invasion,violation_give_the_way,violation_road_signs,violation_heavy_braking,violation_roadside_exit,violation_slowdown,emotion_na,emotion_neutral,emotion_surprise,emotion_anger,emotion_boredom,emotion_fear,emotion_fun,gaze_na,gaze_complete_expl,gaze_partial_expl,gaze_poor_expl,distraction_na,distraction_no,distraction_reduced_attention,distraction_speaking,max_speed,avg_speed,std_speed,yaw,yaw_rate,roll,roll_rate,pitch,pitch_rate,lat_acce,long_acce,vert_acce,avg_acce_pedal_pos,std_acce_pedal_pos,avg_steer_angle,std_steer_angle,hr,hrv_lf,hrv_hf,hrv_lfhf_ratio,gsr_tonic,gsr_phasic,gsr_peaks,EBRmean,BDmean,ThetaFrontal,ThetaParietal,AlphaFrontal,AlphaParietal,LowerAlphaFrontal,LowerAlphaParietal,UpperAlphaFrontal,UpperAlphaParietal,BetaFrontal,BetaParietal,LowerBetaFrontal,LowerBetaParietal,UpperBetaFrontal,UpperBetaParietal
0AC2A4,-1.474982209751687,-1.5028099461769964,-0.09047525272611885,1.874251987546102,-0.4714045207910318,-0.933991662453105,1.681096950363583,-0.3529881569934547,-0.043560684186903224,-0.2476015603006503,-0.23214696976024107,-0.2996385851884669,-0.17390774117049648,-0.11164249200502918,-0.2843585321752809,-1.5789565484195816,0.7745966692414834,0.6255432421712243,0.44721359549995815,0.3989558270297174,2.1145927718295017,0.0,0.0,-0.195826664670239,0.0,-0.1934558081335342,0.2060295457971074,-0.0816885666763928,-0.07559289460184547,0.0,-0.061662641597820735,-0.13894250359418212,-0.09271455408231194,0.0,0.13535908883977157,-0.06166264159782074,0.0,0.0,0.0,-0.12791358969733788,0.0,0.0,0.0,0.0,0.0,0.2252693247131453,-0.030787453590353963,-0.21821789023599236,0.15308975689271836,0.9207787758454286,-0.7520406875941954,-0.13755274421023667,0.01993169294303673,0.7067309328863879,1.5010823573643874,-0.5969298637167312,-0.05381865996268012,-0.23197546532950797,0.22684886060338874,1.0540694526537098,-0.13084422354623707,-0.387974655011464,-0.10163938302627573,-1.313195991096392,0.0,0.0,0.0,-1.4159880265044802e-16,0.23529368705293444,-0.27295497422186804,-0.2806320180763,0.0,7.101024782405144e-16,0.38327753089438876,-0.10342584872567935,0.31222465944706335,-0.32157433491517023,0.06400340748686233,-0.31970996439824173,0.6308005209605734,-0.3186731558064507,0.22244791943223774,-0.17484695477520498,0.5475217662249398,-0.13162157161036525,-0.027651383687347073,-0.2139161953602428
0AC2A4,-1.474982209751687,-1.0817017472243733,-0.09047525272611885,-0.5335461862357516,2.121320343559643,-0.933991662453105,1.681096950363583,-0.3529881569934547,-0.043560684186903224,-0.2476015603006503,-0.23214696976024107,-0.2996385851884669,-0.17390774117049648,-0.11164249200502918,-0.2843585321752809,-1.5789565484195816,0.7745966692414834,0.6255432421712243,0.44721359549995815,0.3989558270297174,2.1145927718295017,0.0,0.0,-0.195826664670239,0.0,-0.1934558081335342,0.2060295457971074,-0.0816885666763928,-0.07559289460184547,0.0,-0.061662641597820735,-0.13894250359418212,-0.09271455408231194,0.0,0.13535908883977157,-0.06166264159782074,0.0,0.0,0.0,-0.12791358969733788,0.0,0.0,0.0,0.0,0.0,0.2252693247131453,-0.030787453590353963,-0.21821789023599236,-0.8963563065646731,-0.7101103583595488,-0.7132552420105006,-0.005530460338084156,-0.06441051731775277,1.0009749947511002,2.2228024307464147,-0.619653779797191,0.31912672351217897,-0.014172307355835573,-0.9140915521777758,1.3109439132736356,-1.35227301611196,-1.3583639473179296,-0.07465239339528622,0.33672576275518595,-2.306066880271378,-0.2227689206261922,-1.154603297814337,0.1538265056507773,0.21490939481010712,-0.2669109281023896,-0.25731032271523874,0.25234108593345367,-0.8862171878177869,-0.16243627748528258,-0.3458621438501466,0.23188341595438972,-0.4076508518632516,0.10628792176513721,-0.3724603572115867,0.46929391823769884,-0.43888580465210986,-0.19776641704524447,-0.5517566548014037,-0.08035129359473116,-0.46741257241559614,-0.2627758335976848,-0.5830482529655143
0AC2A4,-1.474982209751687,-0.9553692875385863,-0.09047525272611885,-0.5335461862357516,-0.4714045207910318,1.0706733691535597,1.681096950363583,-0.3529881569934547,-0.043560684186903224,-0.2476015603006503,-0.23214696976024107,-0.2996385851884669,-0.17390774117049648,-0.11164249200502918,-0.2843585321752809,-1.5789565484195816,0.7745966692414834,0.6255432421712243,0.44721359549995815,0.3989558270297174,2.1145927718295017,0.0,0.0,-0.195826664670239,0.0,-0.1934558081335342,0.2060295457971074,-0.0816885666763928,-0.07559289460184547,0.0,-0.061662641597820735,-0.13894250359418212,-0.09271455408231194,0.0,0.13535908883977157,-0.06166264159782074,0.0,0.0,0.0,-0.12791358969733788,0.0,0.0,0.0,0.0,0.0,0.2252693247131453,-0.030787453590353963,-0.21821789023599236,-1.3111531324610635,-1.177458234982225,-0.9755954509017001,1.0389532006483262,0.507142545832491,1.4982246496852656,0.9823297073736816,0.09527557996497019,-0.46187282129579504,0.7946609623703377,0.18258056820521,1.2025022649476833,-0.5810399579719662,-0.7436566585865124,1.3746527609589272,2.0759769471909078,-1.8573732969642265,1.0749952558105833,-0.5253450211130162,0.22308119424377684,0.20650534449946714,-0.24938319435590187,-0.21066693199311615,-0.48677583705590444,-0.5614265552579198,0.021532336925182798,-0.24242688655820885,0.46432701363222156,-0.1762415430826953,0.7179430539631074,-0.11691738799189547,0.08239879082245609,-0.2600065038248866,-0.1162933108067333,-0.596025618741619,-0.004284014467469582,-0.567972674239854,-0.1596184662457184,-0.5838188835659428
0AC2A4,-1.474982209751687,-0.7448151880622746,-0.09047525272611885,1.874251987546102,-0.4714045207910318,-0.933991662453105,-0.5948496901286524,-0.3529881569934547,-0.043560684186903224,-0.2476015603006503,-0.23214696976024107,-0.2996385851884669,-0.17390774117049648,-0.11164249200502918,-0.2843585321752809,-1.5789565484195816,0.7745966692414834,0.6255432421712243,0.44721359549995815,0.3989558270297174,2.1145927718295017,0.0,0.0,-0.195826664670239,0.0,-0.1934558081335342,0.2060295457971074,-0.0816885666763928,-0.07559289460184547,0.0,-0.061662641597820735,-0.13894250359418212,-0.09271455408231194,0.0,0.13535908883977157,-0.06166264159782074,0.0,0.0,0.0,-0.12791358969733788,0.0,0.0,0.0,0.0,0.0,0.2252693247131453,-0.030787453590353963,-0.21821789023599236,-0.25191114102835255,-0.14623091233088492,-0.7466985733139749,-0.2855905381501245,-0.6278882624643038,0.3075626319071266,1.2599277641082038,-0.4937982445823363,-0.5695215253903697,-0.14855433933883905,0.6727594771374076,0.905107656709367,-0.05832077630555956,-0.33114862082843144,-0.27681155188744905,-0.08200001241636282,-1.2035750546795012,0.8622790223795929,-0.7051331001705364,0.025966790522817796,0.19720724628344105,-0.23850391134084056,-0.21066693199311615,-0.7870420870203314,-1.0480368609915685,0.17633320821831153,-0.2166473590071302,0.6304695851267793,-0.0469815316927193,0.835062032359768,-0.011036556307472427,0.3626602484886205,-0.019101315319813197,0.039352444122035334,-0.5367924979765422,0.15955320211432464,-0.4658620862641208,-0.057080662661631955,-0.5865160906674427
0AC2A4,-1.474982209751687,-0.4289840388478072,-0.09047525272611885,1.874251987546102,-0.4714045207910318,-0.933991662453105,-0.5948496901286524,-0.3529881569934547,-0.043560684186903224,4.038746762281099,-0.23214696976024107,-0.2996385851884669,-0.17390774117049648,-0.11164249200502918,-0.2843585321752809,-1.5789565484195816,0.7745966692414834,0.6255432421712243,0.44721359549995815,0.3989558270297174,2.1145927718295017,0.0,0.0,-0.195826664670239,0.0,-0.1934558081335342,0.2060295457971074,-0.0816885666763928,-0.07559289460184547,0.0,-0.061662641597820735,-0.13894250359418212,-0.09271455408231194,0.0,0.13535908883977157,-0.06166264159782074,0.0,0.0,0.0,-0.12791358969733788,0.0,0.0,0.0,0.0,0.0,0.2252693247131453,-0.030787453590353963,-0.21821789023599236,0.5661049223526426,-0.35609667150633945,2.0341941323067996,0.210279711982279,0.08244063600865731,0.9485128751938258,0.9455375026180383,-0.5444900573772083,0.037573450493246896,0.03230482582359773,0.12925517488773972,1.1257996356439457,-0.3136983909723721,0.3916895405773108,-0.10245128740995069,2.283749533748305,-1.4906322611599518,0.6622477019513677,-0.35031603826584207,-0.21771278226868299,0.14016698991973828,-0.20798147843747408,-0.16402354127099353,-0.9655226557395711,-0.17305933964084394,0.11718298055577911,-0.22095149805344388,0.7760718387057342,0.13766179543887927,0.8722764609931657,0.10913400714771249,0.6240847291637805,0.28286997923560003,-0.16476834892713763,-0.5910375664666652,-0.08391297221607455,-0.55933425139592,-0.21042269521185203,-0.5795804152635858
0AC2A4,-1.474982209751687,0.45534317895270154,-0.09047525272611885,-0.5335461862357516,-0.4714045207910318,-0.933991662453105,-0.5948496901286524,2.832956234332085,-0.043560684186903224,-0.2476015603006503,-0.23214696976024107,-0.2996385851884669,-0.17390774117049648,-0.11164249200502918,-0.2843585321752809,-1.5789565484195816,0.7745966692414834,0.6255432421712243,0.44721359549995815,0.3989558270297174,2.1145927718295017,0.0,0.0,-0.195826664670239,0.0,-0.1934558081335342,0.2060295457971074,-0.0816885666763928,-0.07559289460184547,0.0,-0.061662641597820735,-0.13894250359418212,-0.09271455408231194,0.0,0.13535908883977157,-0.06166264159782074,0.0,0.0,0.0,-0.12791358969733788,0.0,0.0,0.0,0.0,0.0,0.2252693247131453,-0.030787453590353963,-0.21821789023599236,-0.6675987971429762,-0.41948481453646397,-0.4753446065182135,0.14988104351568768,-0.08370155477101844,0.8846459470371442,-0.5031337633055863,-0.9238046565664236,-1.1872720836589823,0.059027128145458865,0.2225648323067908,1.5573444976162265,-0.46851173689636566,-0.5195225114391459,0.16981704025169597,-0.4751314699409347,-1.5005756712747493,0.885697323307775,0.005029812106668326,-0.4022516569007475,0.12586222343354395,-0.1977066000343606,-0.25731032271523874,-1.3644771831057676,-0.32822713692131633,0.1831770362123236,-0.19743730684253033,1.1503476316109231,0.17861833837368074,1.3276715536160246,0.11111024664792434,0.8309638764649878,0.2750717535120794,-0.2462414551656488,-0.5782556825120959,-0.3250894960041816,-0.5666436861100179,-0.18223254377332668,-0.5452873535445157
0AC2A4,-1.474982209751687,0.7501189182195378,-0.09047525272611885,-0.5335461862357516,2.121320343559643,-0.933991662453105,1.681096950363583,-0.3529881569934547,-0.043560684186903224,-0.2476015603006503,-0.23214696976024107,-0.2996385851884669,-0.17390774117049648,-0.11164249200502918,-0.2843585321752809,-1.5789565484195816,0.7745966692414834,0.6255432421712243,0.44721359549995815,0.3989558270297174,2.1145927718295017,0.0,0.0,-0.195826664670239,0.0,-0.1934558081335342,0.2060295457971074,-0.0816885666763928,-0.07559289460184547,0.0,-0.061662641597820735,-0.13894250359418212,-0.09271455408231194,0.0,0.13535908883977157,-0.06166264159782074,0.0,0.0,0.0,-0.12791358969733788,0.0,0.0,0.0,0.0,0.0,0.2252693247131453,-0.030787453590353963,-0.21821789023599236,-1.2203621519819225,-0.9606776305676163,-0.8431618940310959,-1.350081845144908,-0.6594418198491028,0.058937804440044005,0.3835409342415527,-0.16867144527729475,-0.7266230605537718,-1.1468044685906462,-0.5355908055527822,1.1233663108522394,-0.9944995531902115,-0.9362956057556958,-1.519887959745321,-0.5780300045391451,-1.7925519780990231,2.1678492991257623,-0.3614205960899831,0.0020528787158427602,0.16537914085165725,-0.2684219396322592,-0.2806320180763,-1.595451221539942,-0.1241936359630697,-0.23177077299604693,-0.2857854241089685,0.3334149874232862,0.022634908898586006,0.002452567758054709,-0.001307377229506973,0.9914876803883311,0.16205746687274702,-0.38641024009211977,-0.6892398456298187,-0.5146216797828099,-0.6966630248123071,-0.30459638792956306,-0.6531756376045117
0AC2A4,-1.474982209751687,0.8553959679576936,-0.09047525272611885,-0.5335461862357516,-0.4714045207910318,1.0706733691535597,1.681096950363583,-0.3529881569934547,-0.043560684186903224,-0.2476015603006503,-0.23214696976024107,-0.2996385851884669,-0.17390774117049648,-0.11164249200502918,-0.2843585321752809,-1.5789565484195816,0.7745966692414834,0.6255432421712243,0.44721359549995815,0.3989558270297174,2.1145927718295017,0.0,0.0,-0.195826664670239,0.0,-0.1934558081335342,0.2060295457971074,-0.0816885666763928,-0.07559289460184547,0.0,-0.061662641597820735,-0.13894250359418212,-0.09271455408231194,0.0,0.13535908883977157,-0.06166264159782074,0.0,0.0,0.0,-0.12791358969733788,0.0,0.0,0.0,0.0,0.0,0.2252693247131453,-0.030787453590353963,-0.21821789023599236,-0.9381932825691791,-0.8545634133764198,-0.6416624311090721,-1.6339461936768502,0.5847553244235366,-0.8374801514733825,0.3526773312000889,-0.021839987526630814,0.8594193944437056,-1.236922564212285,1.5488726064512524,1.011433370433842,0.2540636410760184,-0.8442339181112595,-1.7712241415914616,-0.23813386796901606,-1.8627915824623957,0.7364056548906124,-0.9520773146407187,0.33386956486313046,0.1637698546219597,-0.27295497422186804,-0.2806320180763,-1.133503144671593,-0.7044418869640765,0.4631221908245286,-0.17677743942022472,0.4947474844692534,-0.13557547208360177,0.3352529894877858,-0.2522897937564017,0.6858372537342913,0.007172706733279938,-0.309609426684491,-0.1695471492330664,-0.1383557739994657,0.014567122671595328,-0.45917754801554256,-0.39000528755816455
0AC2A4,-1.474982209751687,0.9606730176958493,-0.09047525272611885,-0.5335461862357516,-0.4714045207910318,-0.933991662453105,-0.5948496901286524,2.832956234332085,-0.043560684186903224,-0.2476015603006503,-0.23214696976024107,-0.2996385851884669,-0.17390774117049648,-0.11164249200502918,-0.2843585321752809,-1.5789565484195816,0.7745966692414834,0.6255432421712243,0.44721359549995815,0.3989558270297174,2.1145927718295017,0.0,0.0,-0.195826664670239,0.0,-0.1934558081335342,0.2060295457971074,-0.0816885666763928,-0.07559289460184547,0.0,-0.061662641597820735,-0.13894250359418212,-0.09271455408231194,0.0,0.13535908883977157,-0.06166264159782074,0.0,0.0,0.0,-0.12791358969733788,0.0,0.0,0.0,0.0,0.0,0.2252693247131453,-0.030787453590353963,-0.21821789023599236,-0.6542459571452146,-0.2108684281144169,-0.8512259427302855,-0.27586851297704174,0.5597816557824873,1.0625609611879006,0.09548063918789025,-0.3731866900014338,1.1717099243424336,-0.10668393435108854,0.2493448996037889,1.0611578335686698,-0.40827476568284865,-0.3625028826669957,-0.2374607059589467,0.15504981148450483,-1.6826573736943122,1.9726967913909093,-0.5200571364348539,0.1018536039902852,0.15983604383825614,-0.28081223417719015,-0.2806320180763,-0.7870420870203314,-0.36263780260016754,0.6585786593678,-0.11815053493675241,0.8487429634830878,-0.3066634422155026,1.0719364336884247,-0.09966329697081582,0.28157934752733976,-0.6531570529937738,0.40875559606367196,-0.22067468505134327,1.0413230665126145,-0.17481368583003545,-0.010923161954595815,-0.227016915567528
0AC2A4,-1.474982209751687,1.2343933470150545,-0.09047525272611885,1.874251987546102,-0.4714045207910318,-0.933991662453105,1.681096950363583,-0.3529881569934547,-0.043560684186903224,-0.2476015603006503,-0.23214696976024107,-0.2996385851884669,5.750175312895449,-0.11164249200502918,-0.2843585321752809,-1.5789565484195816,0.7745966692414834,0.6255432421712243,0.44721359549995815,0.3989558270297174,2.1145927718295017,0.0,0.0,-0.195826664670239,0.0,-0.1934558081335342,0.2060295457971074,-0.0816885666763928,-0.07559289460184547,0.0,-0.061662641597820735,-0.13894250359418212,-0.09271455408231194,0.0,0.13535908883977157,-0.06166264159782074,0.0,0.0,0.0,-0.12791358969733788,0.0,0.0,0.0,0.0,0.0,0.2252693247131453,-0.030787453590353963,-0.21821789023599236,-0.01959031073372316,0.691397236993816,-0.8407621823782351,-0.08015991927541974,-0.6827705163042147,0.7637549758834249,1.1223493302115088,-0.47107432850187636,0.056289024682278234,0.12189011480384933,0.17890295487297067,0.9455220075976686,0.12202717488994098,-0.4389920244402006,-0.024413677602502196,-0.9617973378224371,0.0,0.0,0.0,-1.4159880265044802e-16,0.0,1.0484748693345893e-16,3.1606790970634705e-17,0.0,7.101024782405144e-16,2.2613617308114053e-16,1.2575142816856806e-16,0.0,0.0,0.0,0.0,0.0,1.6649557210532626e-16,0.0,0.0,0.0,0.0,-2.1495436260110438e-16,0.0
0AC2A4,-1.474982209751687,1.4870582663866283,-0.09047525272611885,-0.5335461862357516,-0.4714045207910318,-0.933991662453105,-0.5948496901286524,-0.3529881569934547,-0.043560684186903224,-0.2476015603006503,-0.23214696976024107,-0.2996385851884669,-0.17390774117049648,-0.11164249200502918,-0.2843585321752809,-0.030787453590353803,0.7745966692414834,0.6255432421712243,0.44721359549995815,0.3989558270297174,2.1145927718295017,0.0,0.0,-0.195826664670239,0.0,-0.1934558081335342,0.2060295457971074,-0.0816885666763928,-0.07559289460184547,0.0,-0.061662641597820735,-0.13894250359418212,-0.09271455408231194,0.0,0.13535908883977157,-0.06166264159782074,0.0,0.0,0.0,-0.12791358969733788,0.0,0.0,0.0,0.0,0.0,0.2252693247131453,-0.030787453590353963,-0.21821789023599236,-0.11305378186756393,-0.2233456622788063,0.295132424979655,0.7520360422794256,-0.2562740913684494,0.9485128751938258,-0.29964322799830784,-0.25956710959913426,-0.8484792078283413,0.8704178697502888,-0.7855902650528813,1.0019116647271757,-0.15728623493037053,-0.36395700632973105,0.6167614092306861,-0.19821959686613175,0.0,0.0,0.0,-1.4159880265044802e-16,0.0,1.0484748693345893e-16,3.1606790970634705e-17,0.0,7.101024782405144e-16,2.2613617308114053e-16,1.2575142816856806e-16,0.0,0.0,0.0,0.0,0.0,1.6649557210532626e-16,0.0,0.0,0.0,0.0,-2.1495436260110438e-16,0.0
0AC2A4,-0.978146096993224,-1.5238653561246276,0.4432781935240574,1.874251987546102,-0.4714045207910318,-0.933991662453105,1.681096950363583,-0.3529881569934547,-0.043560684186903224,-0.2476015603006503,-0.23214696976024107,-0.2996385851884669,-0.17390774117049648,-0.11164249200502918,-0.2843585321752809,-1.5789565484195816,0.7745966692414834,0.6255432421712243,0.44721359549995815,0.3989558270297174,2.1145927718295017,0.0,0.0,-0.195826664670239,0.0,-0.1934558081335342,0.2060295457971074,-0.0816885666763928,-0.07559289460184547,0.0,-0.061662641597820735,-0.13894250359418212,-0.09271455408231194,0.0,0.13535908883977157,-0.06166264159782074,0.0,0.0,0.0,-0.12791358969733788,0.0,0.0,0.0,0.0,0.0,0.2252693247131453,-0.030787453590353963,-0.21821789023599236,0.47976488853942156,1.1702080055454418,-0.3812809974539535,-0.09490733910318774,0.1139941933934562,0.7455072821243733,1.2906169965110155,-0.6668496055027617,-0.38031663304140273,-0.17306344484263192,0.4878811601002058,0.9131482081949955,0.240152710845058,0.3926738704413162,-0.07093511839424059,-1.109829311367677,0.0,0.0,0.0,-1.4159880265044802e-16,0.141239847406203,-0.260866881982911,-0.2806320180763,0.0,7.101024782405144e-16,-0.3508859697489702,-0.3644379018395002,-0.38835618388953363,-0.4067794360561282,-0.27619933928438956,-0.40955285244633066,-0.5361092536821823,-0.34062816053574774,-0.7467608246739217,-0.6496471806973726,-0.7242519072104472,-0.6186957211952616,-0.7482040457314122,-0.6539462682049402
0AC2A4,-0.978146096993224,-1.1027571571720043,0.4432781935240574,-0.5335461862357516,2.121320343559643,-0.933991662453105,1.681096950363583,-0.3529881569934547,-0.043560684186903224,-0.2476015603006503,-0.23214696976024107,-0.2996385851884669,-0.17390774117049648,-0.11164249200502918,-0.2843585321752809,-1.5789565484195816,0.7745966692414834,0.6255432421712243,0.44721359549995815,0.3989558270297174,2.1145927718295017,0.0,0.0,-0.195826664670239,0.0,-0.1934558081335342,0.2060295457971074,-0.0816885666763928,-0.07559289460184547,0.0,-0.061662641597820735,-0.13894250359418212,-0.09271455408231194,0.0,0.13535908883977157,-0.06166264159782074,0.0,0.0,0.0,-0.12791358969733788,0.0,0.0,0.0,0.0,0.0,0.2252693247131453,-0.030787453590353963,-0.21821789023599236,-0.6141906415771751,-0.5535223065991887,-0.5129768337810986,0.057310455998073814,1.0782469802047516,1.1697661620223305,1.8618552087360747,-0.5270101219307007,-0.7897368946802866,0.05123995415595945,-1.2344742710895615,1.4987331091551719,-1.351804518390767,-1.3447947364312818,0.027678689250151833,0.542297545276415,-2.3738989795518006,0.7042054911143613,-1.4983158018948903,1.5070350617681347,0.13015365337940174,-0.240921529788632,-0.25731032271523874,0.25234108593345367,-0.8071622012396072,-0.5125306690361108,-0.3999130689264854,0.2676339692885082,-0.17323999974704798,0.36962817016005245,-0.14063226199443668,0.3074597159149809,-0.007104044975935029,-0.8527634682745652,-0.8189292047786183,-0.9621211579930211,-0.8390862527263991,-0.7531605558744496,-0.7479632014572223
0AC2A4,-0.978146096993224,-0.9974801074338486,0.4432781935240574,-0.5335461862357516,-0.4714045207910318,1.0706733691535597,1.681096950363583,-0.3529881569934547,-0.043560684186903224,-0.2476015603006503,-0.23214696976024107,-0.2996385851884669,-0.17390774117049648,-0.11164249200502918,-0.2843585321752809,-1.5789565484195816,0.7745966692414834,0.6255432421712243,0.44721359549995815,0.3989558270297174,2.1145927718295017,0.0,0.0,-0.195826664670239,0.0,-0.1934558081335342,0.2060295457971074,-0.0816885666763928,-0.07559289460184547,0.0,-0.061662641597820735,-0.13894250359418212,-0.09271455408231194,0.0,0.13535908883977157,-0.06166264159782074,0.0,0.0,0.0,-0.12791358969733788,0.0,0.0,0.0,0.0,0.0,0.2252693247131453,-0.030787453590353963,-0.21821789023599236,-1.6066716374463232,-1.2093646586319422,-1.2475090677649134,1.1565098625238146,-1.230247168369375,1.2610046308175904,0.5453568869109225,-0.10049969703591505,-1.019651576141161,0.8704588548765492,0.06564028894921684,1.1511908508617288,-0.6601647846820012,-0.736889390771475,1.449276662815913,2.6187942849617047,-2.1198954411837074,1.6555739663217721,-0.9430879106878427,0.46550448953501783,0.12282246055522744,-0.2378995067288927,-0.25731032271523874,-0.556068048586157,-0.23996186064470798,-0.5975896741045457,-0.43008734897748435,-0.3308952945306961,-0.41055557122032965,-0.31828105013686914,-0.4685360006064974,-0.3118673275892666,-0.2750030917547343,-0.8270658577047122,-0.7247797180888647,-0.8517091207313772,-0.7535880163736162,-0.7847583080363132,-0.6493224846023689
0AC2A4,-0.978146096993224,-0.8500922378004304,0.4432781935240574,1.874251987546102,-0.4714045207910318,-0.933991662453105,-0.5948496901286524,-0.3529881569934547,-0.043560684186903224,-0.2476015603006503,-0.23214696976024107,-0.2996385851884669,-0.17390774117049648,-0.11164249200502918,-0.2843585321752809,-1.5789565484195816,0.7745966692414834,0.6255432421712243,0.44721359549995815,0.3989558270297174,2.1145927718295017,0.0,0.0,-0.195826664670239,0.0,-0.1934558081335342,0.2060295457971074,-0.0816885666763928,-0.07559289460184547,0.0,-0.061662641597820735,-0.13894250359418212,-0.09271455408231194,0.0,0.13535908883977157,-0.06166264159782074,0.0,0.0,0.0,-0.12791358969733788,0.0,0.0,0.0,0.0,0.0,0.2252693247131453,-0.030787453590353963,-0.21821789023599236,-0.03116149029501867,0.182712852605772,-0.21975411662233998,-0.17860129494103041,0.6744810800201212,0.43757744994037173,1.1143282808335015,-0.22810322579542064,-0.9457455495990736,-0.00590150887646199,0.9340656414568381,0.9963044380332349,0.3940655548333691,0.08337170036754242,-0.08532048705285161,0.002142570602833049,-1.546166049956202,1.0105949282580815,-1.2339215679867725,0.85612389055487,0.1149548389878203,-0.24847658743798007,-0.25731032271523874,-1.7109382407570293,0.14853327566262395,-0.24089587698806303,-0.26498963650625307,0.17754257488652989,-0.0870666588203973,0.3569529560478597,-0.053297677927385746,-0.17034430045684937,-0.08520627491458185,-0.7374162390121569,-0.6605585450488342,-0.7412970834697333,-0.6275556420608349,-0.7066932732834738,-0.6446987009997976
0AC2A4,-0.978146096993224,-0.5553164985335942,0.4432781935240574,1.874251987546102,-0.4714045207910318,-0.933991662453105,-0.5948496901286524,-0.3529881569934547,-0.043560684186903224,4.038746762281099,-0.23214696976024107,-0.2996385851884669,-0.17390774117049648,-0.11164249200502918,-0.2843585321752809,-1.5789565484195816,0.7745966692414834,0.6255432421712243,0.44721359549995815,0.3989558270297174,2.1145927718295017,0.0,0.0,-0.195826664670239,0.0,-0.1934558081335342,0.2060295457971074,-0.0816885666763928,-0.07559289460184547,0.0,-0.061662641597820735,-0.13894250359418212,-0.09271455408231194,0.0,0.13535908883977157,-0.06166264159782074,0.0,0.0,0.0,-0.12791358969733788,0.0,0.0,0.0,0.0,0.0,0.2252693247131453,-0.030787453590353963,-0.21821789023599236,1.2087716318777417,-0.011047131075265471,2.5309598830884283,0.25931253459434844,-0.016108152221591402,0.9211413345552482,1.2022110827142798,-0.6074178249846358,-0.19725919206839507,0.06272398653415805,0.16106261785700113,1.0644375322009745,0.09608916842271203,0.982192381664167,-0.1752513636464853,2.3432389083339937,-1.4559109117023614,0.7910483570563712,-0.737389196707327,0.030360573252152703,0.023046714314017256,-0.13635953192165376,-0.14070184590993226,-0.5256764846089884,-0.6160486899972121,-0.28399569852178136,-0.36439259511269695,-0.12523211135042217,-0.3844130970066267,-0.025432903288769373,-0.3368880462077748,-0.28516796020201646,-0.4027740209170366,-0.6909853290052635,-0.7702956950978184,-0.6939776389290288,-0.765327411520501,-0.6695194472106931,-0.722147076342866
0AC2A4,-0.978146096993224,0.22373366952875876,0.4432781935240574,-0.5335461862357516,-0.4714045207910318,-0.933991662453105,-0.5948496901286524,2.832956234332085,-0.043560684186903224,-0.2476015603006503,-0.23214696976024107,-0.2996385851884669,-0.17390774117049648,-0.11164249200502918,-0.2843585321752809,-1.5789565484195816,0.7745966692414834,0.6255432421712243,0.44721359549995815,0.3989558270297174,2.1145927718295017,0.0,0.0,-0.195826664670239,0.0,-0.1934558081335342,0.2060295457971074,-0.0816885666763928,-0.07559289460184547,0.0,-0.061662641597820735,-0.13894250359418212,-0.09271455408231194,0.0,0.13535908883977157,-0.06166264159782074,0.0,0.0,0.0,-0.12791358969733788,0.0,0.0,0.0,0.0,0.0,0.2252693247131453,-0.030787453590353963,-0.21821789023599236,-0.2510235152353648,-0.012337737252877304,-0.3102139184340703,0.10798709929158237,-0.4391650898594876,0.7797217079225954,-0.3669502945181103,-0.6179057862525404,-1.3655481735617996,0.05178915484785047,-0.29548960321285905,1.4615984568991751,-0.36954233302758677,-0.14231500342896017,0.10366281755362525,-0.3806846087461774,-1.2604564195426375,1.903417651145036,-1.2566594721028708,1.7878098945546153,-0.23443908243749098,0.2271898421649787,0.23244527986704844,-0.473577980499776,-1.046629733398753,0.4696401222473973,-0.22842710797598867,0.640219736036084,0.11035743348234511,0.908679675923383,0.20285336498467843,-0.1447915316690517,-0.1268368030078391,-0.7511410992028739,-0.7818305659836492,-0.7379898104642001,-0.7544740084601734,-0.7426279718204951,-0.7595226604636504
0AC2A4,-0.978146096993224,0.4974539988479638,0.4432781935240574,-0.5335461862357516,2.121320343559643,-0.933991662453105,1.681096950363583,-0.3529881569934547,-0.043560684186903224,-0.2476015603006503,-0.23214696976024107,-0.2996385851884669,-0.17390774117049648,-0.11164249200502918,-0.2843585321752809,-1.5789565484195816,0.7745966692414834,0.6255432421712243,0.44721359549995815,0.3989558270297174,2.1145927718295017,0.0,0.0,-0.195826664670239,0.0,-0.1934558081335342,0.2060295457971074,-0.0816885666763928,-0.07559289460184547,0.0,-0.061662641597820735,-0.13894250359418212,-0.09271455408231194,0.0,0.13535908883977157,-0.06166264159782074,0.0,0.0,0.0,-0.12791358969733788,0.0,0.0,0.0,0.0,0.0,0.2252693247131453,-0.030787453590353963,-0.21821789023599236,-1.0850617048435758,-0.6481282750948097,-0.916586286971457,-1.6009288811325162,0.093955441310219,0.26650532094925966,0.7945325295451136,-0.3871706383586399,-0.7717043706441393,-1.578230301659418,-0.45658080422876807,0.6216782168408307,-1.0949484235469684,-0.8680155513369637,-1.5262347200491144,-0.9990232940768302,-1.159233758133136,1.484815522053775,-1.33967926155002,1.3686532254451058,-0.28754552801749017,0.3788953997638893,0.13915849842280328,-0.9025291062374187,-1.0174638160203955,-0.3874678598598201,-0.38296835310205063,-0.07089127028256213,-0.1824382777111286,-0.183416771983139,-0.20516408259750565,0.29370053272155155,-0.12239781298060405,-0.601043692010778,-0.6795754943470956,-0.5583794457021711,-0.6928975584444386,-0.6224326008518376,-0.6084790627796562
0AC2A4,-0.978146096993224,0.5606202286908574,0.4432781935240574,-0.5335461862357516,-0.4714045207910318,1.0706733691535597,1.681096950363583,-0.3529881569934547,-0.043560684186903224,-0.2476015603006503,-0.23214696976024107,-0.2996385851884669,-0.17390774117049648,-0.11164249200502918,-0.2843585321752809,-1.5789565484195816,0.7745966692414834,0.6255432421712243,0.44721359549995815,0.3989558270297174,2.1145927718295017,0.0,0.0,-0.195826664670239,0.0,-0.1934558081335342,0.2060295457971074,-0.0816885666763928,-0.07559289460184547,0.0,-0.061662641597820735,-0.13894250359418212,-0.09271455408231194,0.0,0.13535908883977157,-0.06166264159782074,0.0,0.0,0.0,-0.12791358969733788,0.0,0.0,0.0,0.0,0.0,0.2252693247131453,-0.030787453590353963,-0.21821789023599236,-1.0414462728278486,-0.7993106249419133,-0.9088529405848524,-1.9625694310491204,0.5440796485530849,-0.7895799553558711,0.11187147922120996,0.35922260520723515,0.6337396239307139,-1.59907533687552,1.3925740398310809,0.9421365122352937,0.35538046510572224,-0.9620470172660744,-1.9467411670959132,-0.2870846025516645,-1.2489035290423063,1.143298633517782,-0.9695273340786545,0.33652879185606627,-0.2526776597073899,0.31422410628546915,-0.09405845518780967,-0.9025291062374187,-0.9945660124645795,-0.6812636187456209,-0.49646170374432125,-0.5197882181469654,-0.6489362064578734,-0.610926393559174,-0.6004119826398598,-0.3993364207474967,-0.6874692461772653,-0.6714201027759437,-0.8722390134671874,-0.5942506375314149,-0.847503177548694,-0.7113400015425714,-0.8319619369039333
0AC2A4,-0.978146096993224,0.6448418684813819,0.4432781935240574,-0.5335461862357516,-0.4714045207910318,-0.933991662453105,-0.5948496901286524,2.832956234332085,-0.043560684186903224,-0.2476015603006503,-0.23214696976024107,-0.2996385851884669,-0.17390774117049648,-0.11164249200502918,-0.2843585321752809,-1.5789565484195816,0.7745966692414834,0.6255432421712243,0.44721359549995815,0.3989558270297174,2.1145927718295017,0.0,0.0,-0.195826664670239,0.0,-0.1934558081335342,0.2060295457971074,-0.0816885666763928,-0.07559289460184547,0.0,-0.061662641597820735,-0.13894250359418212,-0.09271455408231194,0.0,0.13535908883977157,-0.06166264159782074,0.0,0.0,0.0,-0.12791358969733788,0.0,0.0,0.0,0.0,0.0,0.2252693247131453,-0.030787453590353963,-0.21821789023599236,-0.5376401268887834,-0.23107692931721668,-0.7846191051570626,-0.27920312064510394,0.3743484275495458,1.0579990377481376,0.22486365306792502,-0.10049969703591505,1.1126943911332252,-0.09338835939217482,0.20433325982994477,1.1506618672113595,-0.06278186092230882,-0.4348701431346778,-0.22161295872383932,0.05844831808100423,-1.2153719415108795,0.6066292372469344,-0.2620083641405308,-0.24999975172967343,-0.06653688580577778,-0.0172918233679271,-0.25731032271523874,-0.9025291062374187,-1.037803205771092,-0.4474328289502109,-0.3994600016584524,-0.25718415365635006,-0.4151062982130855,-0.3029693914893404,-0.4183699209857371,-0.22325163583158403,-0.3371489521360231,-0.7820950392074695,-0.8298405691300798,-0.8107498165859286,-0.8364282764667272,-0.7330247334183602,-0.7653023899668645
0AC2A4,-0.978146096993224,0.9606730176958493,0.4432781935240574,1.874251987546102,-0.4714045207910318,-0.933991662453105,1.681096950363583,-0.3529881569934547,-0.043560684186903224,-0.2476015603006503,-0.23214696976024107,-0.2996385851884669,5.750175312895449,-0.11164249200502918,-0.2843585321752809,-1.5789565484195816,0.7745966692414834,0.6255432421712243,0.44721359549995815,0.3989558270297174,2.1145927718295017,0.0,0.0,-0.195826664670239,0.0,-0.1934558081335342,0.2060295457971074,-0.0816885666763928,-0.07559289460184547,0.0,-0.061662641597820735,-0.13894250359418212,-0.09271455408231194,0.0,0.13535908883977157,-0.06166264159782074,0.0,0.0,0.0,-0.12791358969733788,0.0,0.0,0.0,0.0,0.0,0.2252693247131453,-0.030787453590353963,-0.21821789023599236,0.14775118443381008,0.948450526829307,-0.9189859986243178,-0.1383981377035482,-0.3316437260695805,0.31896744050653403,1.2297616436213492,-0.5584740057344145,-0.18127581849090105,0.05088748207011894,0.33430167993312615,0.6506665208811289,-0.3081632136853507,-0.2709087517079621,-0.08839278692646861,-1.2642443012345552,-1.3912753882085063,-0.1739807936924788,0.8547928798873596,-0.7861496544420525,0.0042717083008864875,-0.15660708642190674,-0.23398862735417744,-0.9025291062374187,-0.9216512190186861,0.07212777959520027,-0.3642113682054837,-0.5957093932274206,-0.4365043974768941,-0.4509144906068535,-0.4781891704729165,-0.7809899545652425,-0.2976779327046639,-0.6950735852322856,-0.6060017232915266,-0.8064249211171546,-0.6844806336221438,-0.5979598320205903,-0.4971229410177319
0AC2A4,-0.978146096993224,1.192282527119792,0.4432781935240574,-0.5335461862357516,-0.4714045207910318,-0.933991662453105,-0.5948496901286524,-0.3529881569934547,-0.043560684186903224,-0.2476015603006503,-0.23214696976024107,-0.2996385851884669,-0.17390774117049648,-0.11164249200502918,-0.2843585321752809,-0.030787453590353803,0.7745966692414834,0.6255432421712243,0.44721359549995815,0.3989558270297174,2.1145927718295017,0.0,0.0,-0.195826664670239,0.0,-0.1934558081335342,0.2060295457971074,-0.0816885666763928,-0.07559289460184547,0.0,-0.061662641597820735,-0.13894250359418212,-0.09271455408231194,0.0,0.13535908883977157,-0.06166264159782074,0.0,0.0,0.0,-0.12791358969733788,0.0,0.0,0.0,0.0,0.0,0.2252693247131453,-0.030787453590353963,-0.21821789023599236,-0.2759443303691766,-0.4360111709577704,0.177190413037458,1.1062559159769618,-0.24326385680694462,1.078527693227071,0.18876893086689112,-0.17566341945589775,-1.1163714777895861,1.1615926007555497,-1.1064815900638065,1.2769831629198545,-1.0014678403485877,-0.7938205692808898,1.091979176324592,-0.5252696165543825,0.0,0.0,0.0,-1.4159880265044802e-16,0.0,1.0484748693345893e-16,3.1606790970634705e-17,0.0,7.101024782405144e-16,2.2613617308114053e-16,1.2575142816856806e-16,0.0,0.0,0.0,0.0,0.0,1.6649557210532626e-16,0.0,0.0,0.0,0.0,-2.1495436260110438e-16,0.0
0AC2A4,-0.481309984234761,-1.5449207660722588,0.9770316397742337,1.874251987546102,-0.4714045207910318,-0.933991662453105,1.681096950363583,-0.3529881569934547,-0.043560684186903224,-0.2476015603006503,-0.23214696976024107,-0.2996385851884669,-0.17390774117049648,-0.11164249200502918,-0.2843585321752809,-1.5789565484195816,-1.2909944487358056,0.6255432421712243,0.44721359549995815,0.3989558270297174,2.1145927718295017,0.0,0.0,-0.195826664670239,0.0,-0.1934558081335342,0.2060295457971074,-0.0816885666763928,-0.07559289460184547,0.0,-0.061662641597820735,-0.13894250359418212,-0.09271455408231194,0.0,0.13535908883977157,-0.06166264159782074,0.0,0.0,0.0,-0.12791358969733788,0.0,0.0,0.0,0.0,0.0,0.2252693247131453,-0.030787453590353963,-0.21821789023599236,0.3747302378442859,1.1111163853174633,-0.5911412932018457,-0.13882083445020396,-0.21873881694387823,0.7158547797659135,1.1497255204799262,-0.5811979218148744,-0.37662816221582734,-0.23372962873345834,0.21982618408065513,1.1739371478276655,-0.011650512786799985,-0.2099082640562156,-0.11008715912811791,-1.3161022688129662,0.0,0.0,0.0,-1.4159880265044802e-16,0.028589811327418373,-0.1998220161761781,-0.16402354127099353,0.0,7.101024782405144e-16,-0.06637826314075702,-0.2657145441351059,0.028950275028721204,-0.31925055942950775,0.20393777128546967,-0.23549175800460173,-0.31645372198707644,-0.4204100083225375,-0.4839443529367889,-0.44077249168368093,-0.4169299233116779,-0.31790140780904547,-0.5304273813217054,-0.5468286147453728
0AC2A4,-0.481309984234761,-1.1448679770672667,0.9770316397742337,-0.5335461862357516,2.121320343559643,-0.933991662453105,1.681096950363583,-0.3529881569934547,-0.043560684186903224,-0.2476015603006503,-0.23214696976024107,-0.2996385851884669,-0.17390774117049648,-0.11164249200502918,-0.2843585321752809,-1.5789565484195816,-1.2909944487358056,0.6255432421712243,0.44721359549995815,0.3989558270297174,2.1145927718295017,0.0,0.0,-0.195826664670239,0.0,-0.1934558081335342,0.2060295457971074,-0.0816885666763928,-0.07559289460184547,0.0,-0.061662641597820735,-0.13894250359418212,-0.09271455408231194,0.0,0.13535908883977157,-0.06166264159782074,0.0,0.0,0.0,-0.12791358969733788,0.0,0.0,0.0,0.0,0.0,0.2252693247131453,-0.030787453590353963,-0.21821789023599236,-0.08635130629728599,0.2242225407528003,0.22049545689314853,0.2504828692197612,0.7645059214686943,1.2815332862965239,1.5385720446746398,-0.4500984059660672,-1.249156427510305,0.2785434643968211,-1.1529603628159377,1.2387905433631003,-1.3084650270919418,-1.2431436625094379,-0.2796673377117862,-0.2407296799494602,-1.9720941040270894,1.0945105065840686,-1.2868004147683962,0.9311880654561775,0.06971601497522825,-0.2548228358634325,-0.2806320180763,0.7142891628018025,-0.6322946176597188,1.4009710484325302,-0.040902565737123024,1.3296204063300114,0.2938388728711125,1.5012712860966155,0.28638748847439904,0.912863776425877,0.22360346373684192,-0.5566569101173957,-0.5576799668779113,-0.4202371963172111,-0.3916602490149438,-0.6521716617100622,-0.7140554550383664
0AC2A4,-0.481309984234761,-1.0185355173814798,0.9770316397742337,-0.5335461862357516,-0.4714045207910318,1.0706733691535597,1.681096950363583,-0.3529881569934547,-0.043560684186903224,-0.2476015603006503,-0.23214696976024107,-0.2996385851884669,-0.17390774117049648,-0.11164249200502918,-0.2843585321752809,-1.5789565484195816,-1.2909944487358056,0.6255432421712243,0.44721359549995815,0.3989558270297174,2.1145927718295017,0.0,0.0,-0.195826664670239,0.0,-0.1934558081335342,0.2060295457971074,-0.0816885666763928,-0.07559289460184547,0.0,-0.061662641597820735,-0.13894250359418212,-0.09271455408231194,0.0,0.13535908883977157,-0.06166264159782074,0.0,0.0,0.0,-0.12791358969733788,0.0,0.0,0.0,0.0,0.0,0.2252693247131453,-0.030787453590353963,-0.21821789023599236,-1.3307353751359667,-0.9846837301396831,-0.94611206780277,1.1389444643850082,0.10427390320382622,1.4480434918478728,-0.5217914216413865,0.3364986891267752,-0.965690614063297,1.0278499367422105,0.22395371819290247,0.8861700420260857,-0.49623200732611183,-0.6501587441859591,0.8076152349112042,2.0138763169445677,-1.7616730112308192,1.216480823918352,-0.652254253388913,0.09356344789720032,0.04432505446223266,-0.21342111994500473,-0.23398862735417744,-0.5791654524295743,-0.5256087619862532,0.10455448842397128,-0.2788988016348667,0.21303312419639994,0.014985814591613652,0.3270394507430849,-0.17954897830629926,-0.04946004811457605,0.28107038868401846,-0.7213552324059989,-0.7462906935246031,-0.6789677075962246,-0.6829301474706685,-0.7358127703738188,-0.761834552264936
0AC2A4,-0.481309984234761,-0.8500922378004304,0.9770316397742337,1.874251987546102,-0.4714045207910318,-0.933991662453105,-0.5948496901286524,-0.3529881569934547,-0.043560684186903224,-0.2476015603006503,-0.23214696976024107,-0.2996385851884669,-0.17390774117049648,-0.11164249200502918,-0.2843585321752809,-1.5789565484195816,-1.2909944487358056,0.6255432421712243,0.44721359549995815,0.3989558270297174,2.1145927718295017,0.0,0.0,-0.195826664670239,0.0,-0.1934558081335342,0.2060295457971074,-0.0816885666763928,-0.07559289460184547,0.0,-0.061662641597820735,-0.13894250359418212,-0.09271455408231194,0.0,0.13535908883977157,-0.06166264159782074,0.0,0.0,0.0,-0.12791358969733788,0.0,0.0,0.0,0.0,0.0,0.2252693247131453,-0.030787453590353963,-0.21821789023599236,0.24655322802655913,0.2973500185801122,-0.5383137186530007,-0.3041891950029784,-1.8430740790940479,0.10455703883767377,0.022593712231212884,-0.3504627739209739,-0.5844120187232488,-0.22116358902198194,0.7533344203049276,0.4256368760135068,0.6574184801813745,0.5651485966350155,-0.1702135673151783,0.1467520972435326,-1.5671329456879102,0.443676893288332,-0.5290465403877299,-0.2522827331768459,0.03270243169219956,-0.22218498681824858,-0.14070184590993226,-1.133503144671593,-1.0783540645822294,0.1946648903451294,-0.22498379673893767,0.4202563315221628,0.05632965344069221,0.570504963410082,0.10077299387758583,0.17936827237614958,0.0518025524125067,-0.6270333208825611,-0.6530764666364034,-0.5387902132847826,-0.5542397968982152,-0.6698292290946329,-0.7132848244379378
0AC2A4,-0.481309984234761,-0.5763719084812253,0.9770316397742337,1.874251987546102,-0.4714045207910318,-0.933991662453105,-0.5948496901286524,-0.3529881569934547,-0.043560684186903224,4.038746762281099,-0.23214696976024107,-0.2996385851884669,-0.17390774117049648,-0.11164249200502918,-0.2843585321752809,-1.5789565484195816,-1.2909944487358056,0.6255432421712243,0.44721359549995815,0.3989558270297174,2.1145927718295017,0.0,0.0,-0.195826664670239,0.0,-0.1934558081335342,0.2060295457971074,-0.0816885666763928,-0.07559289460184547,0.0,-0.061662641597820735,-0.13894250359418212,-0.09271455408231194,0.0,0.13535908883977157,-0.06166264159782074,0.0,0.0,0.0,-0.12791358969733788,0.0,0.0,0.0,0.0,0.0,0.2252693247131453,-0.030787453590353963,-0.21821789023599236,1.379673243492962,0.0437685830626696,2.651759502193219,0.28133973172563254,0.017987634905110718,0.9165794111154849,0.6538154241526766,-0.5742059476362713,-0.2325045799572279,0.0849215309168574,0.15089049587421152,1.1360619184611402,-0.09557768771681145,0.725095488195918,-0.05701772952100807,2.1443085451547814,-1.5839608577856095,0.9647340889403911,-1.0985517202258162,0.5969608569987465,0.05165624728640695,-0.23366867444525777,-0.21066693199311615,-1.133503144671593,-0.697278328309743,0.5177913406338389,-0.1914568189044945,0.46406700960797354,0.09263864540416865,0.5491092019887008,0.04749053658341451,0.33677988010097937,0.23979977870107763,-0.5467282878517706,-0.6116132821008498,-0.4868914676594938,-0.5588912553526413,-0.5722479356535837,-0.6269741971899413
0AC2A4,-0.481309984234761,0.16056743968586526,0.9770316397742337,-0.5335461862357516,-0.4714045207910318,-0.933991662453105,-0.5948496901286524,2.832956234332085,-0.043560684186903224,-0.2476015603006503,-0.23214696976024107,-0.2996385851884669,-0.17390774117049648,-0.11164249200502918,-0.2843585321752809,-1.5789565484195816,-1.2909944487358056,0.6255432421712243,0.44721359549995815,0.3989558270297174,2.1145927718295017,0.0,0.0,-0.195826664670239,0.0,-0.1934558081335342,0.2060295457971074,-0.0816885666763928,-0.07559289460184547,0.0,-0.061662641597820735,-0.13894250359418212,-0.09271455408231194,0.0,0.13535908883977157,-0.06166264159782074,0.0,0.0,0.0,-0.12791358969733788,0.0,0.0,0.0,0.0,0.0,0.2252693247131453,-0.030787453590353963,-0.21821789023599236,0.13618000487251458,0.24912752897253335,-0.0508076326237538,0.19943049548478084,0.11249876413351315,1.078527693227071,-0.295632703309304,-0.7053054634850783,-1.3596739422469943,0.20274557189060952,-0.24071663869014565,1.9626517705301445,-0.14360708778252662,0.04555665523977877,0.14822640465652473,-0.5457465035907462,-1.2755606878338548,0.6554173641806478,-1.4718763785040785,1.624901950282353,0.03967600535421962,-0.21855855914656147,-0.11738015054887099,-1.2654886394540334,-0.8904385705962333,0.4054384977321419,-0.21356650158450569,1.530603517073819,0.6264292392565562,1.7883395353095555,0.4831753371685634,0.8712586272457453,0.8261063804064032,-0.4892006823715315,-0.46259522038660394,-0.3151676769875822,-0.30461152651068535,-0.623671728387597,-0.6184972605852272
0AC2A4,-0.481309984234761,0.4132323590574392,0.9770316397742337,-0.5335461862357516,2.121320343559643,-0.933991662453105,1.681096950363583,-0.3529881569934547,-0.043560684186903224,-0.2476015603006503,-0.23214696976024107,-0.2996385851884669,-0.17390774117049648,-0.11164249200502918,-0.2843585321752809,-1.5789565484195816,-1.2909944487358056,0.6255432421712243,0.44721359549995815,0.3989558270297174,2.1145927718295017,0.0,0.0,-0.195826664670239,0.0,-0.1934558081335342,0.2060295457971074,-0.0816885666763928,-0.07559289460184547,0.0,-0.061662641597820735,-0.13894250359418212,-0.09271455408231194,0.0,0.13535908883977157,-0.06166264159782074,0.0,0.0,0.0,-0.12791358969733788,0.0,0.0,0.0,0.0,0.0,0.2252693247131453,-0.030787453590353963,-0.21821789023599236,-0.9702375350236107,-0.4774218988867068,-0.9742048052795474,-1.505634247914232,-1.2052734997283256,-0.05511028155403071,0.6742167888750003,0.06905567679520877,-1.0450610418284592,-1.6057805035317414,-0.4571872191931266,0.9807523187123471,-1.2772058728229525,-1.1834921541940446,-1.335453407468183,-0.8836467435105534,-1.088509518855344,0.118747967909801,-1.551194648676514,1.3973499196134758,0.06256363173213057,-0.253009622027589,-0.25731032271523874,-1.133503144671593,-1.1319528337994744,-0.35194513360518637,-0.32243856609283955,0.22343328516632557,-0.28952559800874167,0.027397389130849818,-0.2818573770480317,0.5991871595756697,-0.23181291851677288,-0.620900936542028,-0.6075604896274497,-0.7344281318428568,-0.7267867557552566,-0.5202045791516909,-0.43508717768323424
0AC2A4,-0.481309984234761,0.47639858890033265,0.9770316397742337,-0.5335461862357516,-0.4714045207910318,1.0706733691535597,1.681096950363583,-0.3529881569934547,-0.043560684186903224,-0.2476015603006503,-0.23214696976024107,-0.2996385851884669,-0.17390774117049648,-0.11164249200502918,-0.2843585321752809,-1.5789565484195816,-1.2909944487358056,0.6255432421712243,0.44721359549995815,0.3989558270297174,2.1145927718295017,0.0,0.0,-0.195826664670239,0.0,-0.1934558081335342,0.2060295457971074,-0.0816885666763928,-0.07559289460184547,0.0,-0.061662641597820735,-0.13894250359418212,-0.09271455408231194,0.0,0.13535908883977157,-0.06166264159782074,0.0,0.0,0.0,-0.12791358969733788,0.0,0.0,0.0,0.0,0.0,0.2252693247131453,-0.030787453590353963,-0.21821789023599236,-0.5572223695636866,-0.47941347327580136,-0.5476581788701479,-2.0231559647364477,0.7283165333780719,-1.2069959500941843,0.7115321055466006,0.39418247610025037,0.7743113453943147,-1.9372845987773573,1.5858834810501716,0.3786631278605958,0.7659708816482825,-0.983802944373922,-1.869759191434889,-0.28941214029345275,-1.0410768559495607,0.7364056548906124,-1.3222292421120838,0.9182235367352225,0.07061006288061533,-0.2533118243335629,-0.25731032271523874,-0.6715550678032441,-0.9196044879745909,-0.2812255776670624,-0.3187687212217722,0.36903553874528044,0.23942379691518237,0.3563445457704744,0.08336688443341282,0.42736116945772346,0.5567676611863386,-0.6311215771095832,-0.6209658801163881,-0.7395162441590616,-0.6191387172385402,-0.5434382204471787,-0.5884426671685141
0AC2A4,-0.481309984234761,0.5816756386384885,0.9770316397742337,-0.5335461862357516,-0.4714045207910318,-0.933991662453105,-0.5948496901286524,2.832956234332085,-0.043560684186903224,-0.2476015603006503,-0.23214696976024107,-0.2996385851884669,-0.17390774117049648,-0.11164249200502918,-0.2843585321752809,-1.5789565484195816,-1.2909944487358056,0.6255432421712243,0.44721359549995815,0.3989558270297174,2.1145927718295017,0.0,0.0,-0.195826664670239,0.0,-0.1934558081335342,0.2060295457971074,-0.0816885666763928,-0.07559289460184547,0.0,-0.061662641597820735,-0.13894250359418212,-0.09271455408231194,0.0,0.13535908883977157,-0.06166264159782074,0.0,0.0,0.0,-0.12791358969733788,0.0,0.0,0.0,0.0,0.0,0.2252693247131453,-0.030787453590353963,-0.21821789023599236,-0.26081303436019365,-0.0218544115593581,-0.5865538585580377,-0.22246782398286266,0.28776307339884166,1.343119252733324,0.24108012246259247,-0.20188332262565914,1.2398783296002927,-0.08956854562469406,0.34842528007076873,0.6279202239151922,-0.2070061720363484,0.09124298360959489,-0.1853024435260771,0.06941571922629995,-1.2899866910947302,1.7941322468135177,-1.4628869745512028,2.1555803499732957,0.07400744492108705,-0.260866881982911,-0.2806320180763,-1.306733673497224,-0.5015596722181339,-0.11347031767098252,-0.22194824604311653,0.1437420517342724,-0.0984918882915712,0.178384539635289,-0.17749672959454094,0.06814820822926136,0.02216929466312765,-0.44568995538393963,-0.38465690359045046,-0.19864990494649254,-0.18743907306347754,-0.6329651849057921,-0.5711034786588718
0AC2A4,-0.481309984234761,0.8553959679576936,0.9770316397742337,1.874251987546102,-0.4714045207910318,-0.933991662453105,1.681096950363583,-0.3529881569934547,-0.043560684186903224,-0.2476015603006503,-0.23214696976024107,-0.2996385851884669,5.750175312895449,-0.11164249200502918,-0.2843585321752809,-1.5789565484195816,-1.2909944487358056,0.6255432421712243,0.44721359549995815,0.3989558270297174,2.1145927718295017,0.0,0.0,-0.195826664670239,0.0,-0.1934558081335342,0.2060295457971074,-0.0816885666763928,-0.07559289460184547,0.0,-0.061662641597820735,-0.13894250359418212,-0.09271455408231194,0.0,0.13535908883977157,-0.06166264159782074,0.0,0.0,0.0,-0.12791358969733788,0.0,0.0,0.0,0.0,0.0,0.2252693247131453,-0.030787453590353963,-0.21821789023599236,0.5785669321321706,1.4935605181599207,-0.7836185186728308,-0.14145094754050655,-0.8021057712476722,0.37827244522345277,0.8081334393599959,-0.7122974376636814,-0.17034701604475141,0.02215690856149218,0.3337148267418114,1.7786712569312633,0.12698042869169102,0.013364594460146139,-0.08989226089324198,-1.252797986789629,0.0,0.0,0.0,-1.4159880265044802e-16,0.0,1.0484748693345893e-16,3.1606790970634705e-17,0.0,7.101024782405144e-16,2.2613617308114053e-16,1.2575142816856806e-16,0.0,0.0,0.0,0.0,0.0,1.6649557210532626e-16,0.0,0.0,0.0,0.0,-2.1495436260110438e-16,0.0
0AC2A4,-0.481309984234761,1.044894657486374,0.9770316397742337,-0.5335461862357516,-0.4714045207910318,-0.933991662453105,-0.5948496901286524,-0.3529881569934547,-0.043560684186903224,-0.2476015603006503,-0.23214696976024107,-0.2996385851884669,-0.17390774117049648,-0.11164249200502918,-0.2843585321752809,-0.030787453590353803,-1.2909944487358056,0.6255432421712243,0.44721359549995815,0.3989558270297174,2.1145927718295017,0.0,0.0,-0.195826664670239,0.0,-0.1934558081335342,0.2060295457971074,-0.0816885666763928,-0.07559289460184547,0.0,-0.061662641597820735,-0.13894250359418212,-0.09271455408231194,0.0,0.13535908883977157,-0.06166264159782074,0.0,0.0,0.0,-0.12791358969733788,0.0,0.0,0.0,0.0,0.0,0.2252693247131453,-0.030787453590353963,-0.21821789023599236,0.35247870893992844,-0.7199569000596685,0.758921219514019,0.8965983296356993,0.06434594196334609,0.8321838274798696,0.06566325997834038,-0.1599314775540409,-0.7076342663035866,0.9067470856676164,-1.0439230398696504,0.7719095735460522,-1.234350660221192,-1.0963890282395357,0.9156976875260409,0.0175701702773342,0.0,0.0,0.0,-1.4159880265044802e-16,0.0,1.0484748693345893e-16,3.1606790970634705e-17,0.0,7.101024782405144e-16,2.2613617308114053e-16,1.2575142816856806e-16,0.0,0.0,0.0,0.0,0.0,1.6649557210532626e-16,0.0,0.0,0.0,0.0,-2.1495436260110438e-16,0.0
0AC2A4,1.009198354040628,-1.5238653561246276,2.578291978524762,1.874251987546102,-0.4714045207910318,-0.933991662453105,1.681096950363583,-0.3529881569934547,-0.043560684186903224,-0.2476015603006503,-0.23214696976024107,3.337353897099132,-0.17390774117049648,-0.11164249200502918,-0.2843585321752809,-1.5789565484195816,-1.2909944487358056,-1.5986105077709065,-2.2360679774997894,-2.5065431615453297,2.1145927718295017,0.0,0.0,-0.195826664670239,0.0,-0.1934558081335342,-4.853672788196966,-0.0816885666763928,13.228756555322956,0.0,-0.061662641597820735,-0.13894250359418212,-0.09271455408231194,0.0,0.13535908883977157,-0.06166264159782074,0.0,0.0,0.0,-0.12791358969733788,0.0,0.0,0.0,0.0,0.0,0.2252693247131453,-0.030787453590353963,-0.21821789023599236,2.3855070793598716,2.3308629234334033,0.8535105604598243,-0.07405429960150305,1.2888034200047367,0.8823649853172628,0.9106633748875707,-0.6703455925920632,-0.5144676830678906,-0.12049592190088486,0.26959133470414903,-0.009716668241447977,1.176600750630522,1.3812251672953462,-0.07005023488848809,-1.0741669879309939,0.0,0.0,0.0,-1.4159880265044802e-16,0.2639032200253251,-0.21674534531071793,-0.21066693199311615,0.0,7.101024782405144e-16,-0.19535183117076876,-0.360496216607613,0.08823119255729585,-0.1771129588898188,0.20495178841444497,-0.22652267104210214,-0.10482438048813758,-0.10548166179573591,-0.35458024518173364,0.16371709338728635,-0.3449331340373802,-0.0166640983795507,-0.3575690900832755,0.3447909899504501
0AC2A4,1.009198354040628,-1.2080342069101602,2.578291978524762,-0.5335461862357516,2.121320343559643,-0.933991662453105,1.681096950363583,-0.3529881569934547,-0.043560684186903224,-0.2476015603006503,-0.23214696976024107,-0.2996385851884669,-0.17390774117049648,8.957163012403495,-0.2843585321752809,-1.5789565484195816,-1.2909944487358056,-1.5986105077709065,-2.2360679774997894,-2.5065431615453297,2.1145927718295017,0.0,0.0,-0.195826664670239,0.0,-0.1934558081335342,0.2060295457971074,-0.0816885666763928,-0.07559289460184547,0.0,-0.061662641597820735,-0.13894250359418212,-0.09271455408231194,0.0,0.13535908883977157,-0.06166264159782074,0.0,0.0,0.0,-0.12791358969733788,0.0,0.0,0.0,0.0,0.0,0.2252693247131453,-0.030787453590353963,-0.21821789023599236,-0.5545530833342323,-0.0660277789100203,-0.9547272870229347,0.24038511360520667,1.785285934305838,1.3180286738146278,1.640578868286258,0.3155227665909661,-0.29247638338047455,0.17904797188677501,-1.0761999653919636,0.9347307411301047,-0.9307848494189546,-0.8619238917467663,0.24147154000105933,0.8892614741328467,0.0,0.0,0.0,-1.4159880265044802e-16,0.3082479961325291,-0.17776124784008154,-0.11738015054887099,0.0,7.101024782405144e-16,-0.14035678479031535,-0.3434155806027683,0.36591549045430294,0.3292764490274654,0.34346652823248675,0.007585700521446028,0.31564970591106983,0.7885549242300642,-0.34377556801031817,-0.322618003420712,-0.19330738701447747,-0.30040306409953804,-0.4551503835243247,-0.33683177612859516
0AC2A4,1.009198354040628,-1.1027571571720043,2.578291978524762,-0.5335461862357516,-0.4714045207910318,1.0706733691535597,1.681096950363583,-0.3529881569934547,-0.043560684186903224,-0.2476015603006503,4.307615994440028,-0.2996385851884669,-0.17390774117049648,-0.11164249200502918,-0.2843585321752809,-1.5789565484195816,-1.2909944487358056,-1.5986105077709065,-2.2360679774997894,-2.5065431615453297,2.1145927718295017,0.0,0.0,-0.195826664670239,0.0,-0.1934558081335342,0.2060295457971074,-0.0816885666763928,-0.07559289460184547,0.0,-0.061662641597820735,-0.13894250359418212,-0.09271455408231194,0.0,0.13535908883977157,-0.06166264159782074,0.0,0.0,0.0,-0.12791358969733788,0.0,0.0,0.0,0.0,0.0,0.2252693247131453,-0.030787453590353963,-0.21821789023599236,0.4584009854280519,0.030367720196091585,0.2577291454716363,1.5461423303300676,-1.1071733402760597,0.5060063015368165,-0.05029321472546436,0.5829657789225327,-1.8072084024168251,1.8912753946474008,1.5564430126192133,0.47610191625884396,1.1300064330581454,0.09358188559327153,1.3197201734331325,1.4646082972429764,-0.9971261773827146,1.0457223796503552,-0.4407388662624186,-0.14812648743196,0.29161870509232773,-0.17927225936995114,-0.14070184590993226,0.02136704749927919,-1.0403616195762113,0.015992095215744625,-0.2506274041096065,-0.22468365062533344,-0.03507218232869909,-0.15603830950080286,-0.1708839281899861,-0.28565935960178185,0.2586354931409662,-0.46233499859395805,0.023428123154209942,-0.4110785941480424,-0.16949773331069148,-0.47094925960525647,0.23651739059024
0AC2A4,1.009198354040628,-0.9553692875385863,2.578291978524762,1.874251987546102,-0.4714045207910318,-0.933991662453105,-0.5948496901286524,-0.3529881569934547,-0.043560684186903224,-0.2476015603006503,-0.23214696976024107,-0.2996385851884669,-0.17390774117049648,-0.11164249200502918,-0.2843585321752809,-1.5789565484195816,-1.2909944487358056,-1.5986105077709065,-2.2360679774997894,-2.5065431615453297,2.1145927718295017,0.0,0.0,-0.195826664670239,0.0,-0.1934558081335342,0.2060295457971074,-0.0816885666763928,-0.07559289460184547,0.0,-0.061662641597820735,-0.13894250359418212,-0.09271455408231194,0.0,0.13535908883977157,-0.06166264159782074,0.0,0.0,0.0,-0.12791358969733788,0.0,0.0,0.0,0.0,0.0,0.2252693247131453,-0.030787453590353963,-0.21821789023599236,1.5158613164242967,1.307762708692841,0.41270981642336085,-0.6097519765299169,0.24215248097057784,0.4352964882204901,0.581800350389261,-0.3137549094833079,-1.263090650629146,-0.5848492054073605,0.608420805596263,0.8340122540995517,1.8756072411384255,2.236668221175912,-0.4672126833202907,-0.2174874188767659,-0.9632632920806908,-0.7204078153500689,-0.08116270814737811,-0.34422056424915487,0.24262487987710973,-0.17292601094449875,-0.047415064465687086,-1.0411135292979232,-1.0119632263393896,0.03717537234006742,-0.24831676104263806,1.15216765978066,0.2755391409215203,1.290862731834217,0.15876802228764664,1.078465374146796,0.4771057861029875,-0.23602081459809376,-0.10064967718526674,-0.058218005019240265,0.02719250990503741,-0.37925382195906415,-0.24820925707931285
0AC2A4,1.009198354040628,-0.7658705980099059,2.578291978524762,1.874251987546102,-0.4714045207910318,-0.933991662453105,-0.5948496901286524,-0.3529881569934547,-0.043560684186903224,4.038746762281099,-0.23214696976024107,-0.2996385851884669,-0.17390774117049648,-0.11164249200502918,-0.2843585321752809,-1.5789565484195816,-1.2909944487358056,-1.5986105077709065,-2.2360679774997894,-2.5065431615453297,2.1145927718295017,0.0,0.0,-0.195826664670239,0.0,-0.1934558081335342,0.2060295457971074,-0.0816885666763928,-0.07559289460184547,0.0,-0.061662641597820735,-0.13894250359418212,-0.09271455408231194,0.0,0.13535908883977157,-0.06166264159782074,0.0,0.0,0.0,-0.12791358969733788,0.0,0.0,0.0,0.0,0.0,0.2252693247131453,-0.030787453590353963,-0.21821789023599236,2.104232244590607,0.7908110227517235,3.2630839258729054,0.3825990857022817,0.21673018355154552,1.1264278893445825,0.8585265539305215,-0.4378624511535119,-0.24643880307606889,0.16555566832181073,-0.33801689781013733,0.8020616416171779,0.6798452195171358,1.8313983635882625,0.05375600297887206,1.8374806713860694,-0.6935410175968615,0.9969342527166417,-0.8262256593004546,0.3492828781531196,0.27588346195751345,-0.167788571742942,-0.11738015054887099,-1.4722658376218436,-1.1519084614794033,-0.003235802481717673,-0.2919924456810209,0.5731386977800654,0.2671154547859937,0.645947837805853,0.037533329870809005,0.34234907329832,0.5496892716834504,-0.3539962085778734,0.7685184317254385,-0.3077899141290853,0.5107226911437044,-0.37987338572694385,0.9794052894033543
0AC2A4,1.009198354040628,-0.1763191194762333,2.578291978524762,-0.5335461862357516,-0.4714045207910318,-0.933991662453105,-0.5948496901286524,2.832956234332085,-0.043560684186903224,-0.2476015603006503,4.307615994440028,-0.2996385851884669,-0.17390774117049648,-0.11164249200502918,-0.2843585321752809,-1.5789565484195816,-1.2909944487358056,-1.5986105077709065,-2.2360679774997894,-2.5065431615453297,2.1145927718295017,0.0,0.0,-0.195826664670239,0.0,-0.1934558081335342,0.2060295457971074,-0.0816885666763928,-0.07559289460184547,0.0,-0.061662641597820735,-0.13894250359418212,-0.09271455408231194,0.0,0.13535908883977157,-0.06166264159782074,0.0,0.0,0.0,-0.12791358969733788,0.0,0.0,0.0,0.0,0.0,0.2252693247131453,-0.030787453590353963,-0.21821789023599236,0.7806251704088352,-0.49890038955501637,1.8950871723591582,0.13997115312186903,-0.5389102214976909,0.7934074782418843,-0.36189354599719253,-0.8626248825036468,-0.07745219525247882,0.10765188194094358,0.7404823354151339,0.7043054630287007,1.2238933763852242,2.0976663031417164,0.15303743444375165,-0.5514882091507781,-0.7407050606886464,0.36951894034908794,-1.3550141271166907,1.1624005188923086,0.25996940924162154,-0.07803448686868612,0.045871716978558054,-1.4799642023228547,-0.8237918909728815,-0.06197865943032064,-0.20989665671343824,0.12645178412177152,0.20708458807304622,0.13883787160524794,0.17320977248150177,0.06683780982988717,0.2786709346152428,-0.23339264988072245,1.8509257753904198,-0.3370465599472628,1.2274902891685904,-0.1546619561026812,2.3576781182698014
